City_ID,City,Lat,Lng,Max Temp,Humidity,Cloudiness,Wind Speed,Country,Description,Rain,Snow,Date
0,Qaanaaq,77.48,-69.36,-14.3,59,0,5.59,GL,clear sky,0.0,0.0,2020-02-20 21:42:05
1,Hobart,-42.88,147.33,54.0,46,40,13.87,AU,scattered clouds,0.25,0.0,2020-02-20 21:46:06
2,Albany,42.6,-73.97,28.0,42,40,18.34,US,shower rain,0.0,0.0,2020-02-20 21:46:12
3,Port Alfred,-33.59,26.89,69.01,91,77,1.01,ZA,light rain,0.0,0.0,2020-02-20 21:46:12
4,Najran,17.49,44.13,73.4,35,15,6.93,SA,few clouds,0.0,0.0,2020-02-20 21:46:13
5,New Norfolk,-42.78,147.06,54.0,46,40,13.87,AU,scattered clouds,0.38,0.0,2020-02-20 21:46:13
6,Lebu,-37.62,-73.65,74.46,35,0,8.14,CL,clear sky,0.0,0.0,2020-02-20 21:46:14
7,Vaini,-21.2,-175.2,80.6,69,20,5.82,TO,few clouds,0.0,0.0,2020-02-20 21:46:14
8,Westport,41.14,-73.36,37.0,34,1,8.05,US,clear sky,0.0,0.0,2020-02-20 21:46:15
9,Mogadishu,2.04,45.34,81.48,85,94,18.12,SO,overcast clouds,0.0,0.0,2020-02-20 21:44:18
10,Meridian,43.61,-116.39,42.01,32,1,10.29,US,clear sky,0.0,0.0,2020-02-20 21:46:16
11,Rikitea,-23.12,-134.97,78.85,75,40,9.98,PF,scattered clouds,0.5,0.0,2020-02-20 21:41:42
12,Bengkulu,-3.8,102.27,72.91,90,86,4.21,ID,overcast clouds,0.0,0.0,2020-02-20 21:46:17
13,Solnechnyy,50.72,136.63,-2.9,89,35,2.42,RU,scattered clouds,0.0,0.0,2020-02-20 21:46:18
14,Saint-Jean-Port-Joli,47.22,-70.27,0.0,45,81,8.99,CA,broken clouds,0.0,0.0,2020-02-20 21:46:18
15,Atuona,-9.8,-139.03,81.59,75,21,18.77,PF,light rain,0.0,0.0,2020-02-20 21:46:19
16,Bud,39.45,-86.18,32.0,58,40,17.22,US,scattered clouds,0.0,0.0,2020-02-20 21:46:19
17,Tuatapere,-46.13,167.68,61.77,94,76,2.28,NZ,light rain,0.69,0.0,2020-02-20 21:46:20
18,Cabo San Lucas,22.89,-109.91,84.0,44,5,10.29,MX,clear sky,0.0,0.0,2020-02-20 21:45:08
19,Cherskiy,68.75,161.3,-16.73,97,100,7.09,RU,overcast clouds,0.0,0.0,2020-02-20 21:46:21
20,Kuruman,-27.45,23.43,70.0,80,11,6.04,ZA,light rain,0.0,0.0,2020-02-20 21:46:21
21,Teguise,29.06,-13.56,64.4,72,20,13.87,ES,few clouds,0.0,0.0,2020-02-20 21:45:05
22,Lavrentiya,65.58,-171.0,-14.51,88,0,8.5,RU,clear sky,0.0,0.0,2020-02-20 21:46:22
23,Busselton,-33.65,115.33,68.0,34,70,15.84,AU,broken clouds,0.0,0.0,2020-02-20 21:41:42
24,Yellowknife,62.46,-114.35,33.01,79,20,11.41,CA,few clouds,0.0,0.0,2020-02-20 21:46:23
25,Upernavik,72.79,-56.15,-11.58,99,100,4.09,GL,overcast clouds,0.0,0.0,2020-02-20 21:46:24
26,Bluff,-46.6,168.33,66.81,61,43,7.92,NZ,scattered clouds,0.13,0.0,2020-02-20 21:42:09
27,Ribeira Grande,38.52,-28.7,57.2,62,40,6.93,PT,scattered clouds,0.0,0.0,2020-02-20 21:46:25
28,Belmonte,-15.86,-38.88,84.2,79,20,4.7,BR,few clouds,0.0,0.0,2020-02-20 21:46:25
29,Ballina,-28.87,153.57,73.4,94,100,4.7,AU,light rain,1.94,0.0,2020-02-20 21:46:26
30,Bredasdorp,-34.53,20.04,62.6,82,7,2.24,ZA,clear sky,0.0,0.0,2020-02-20 21:46:26
31,Pevek,69.7,170.31,-8.75,99,100,6.67,RU,light snow,0.0,0.31,2020-02-20 21:46:27
32,Ushuaia,-54.8,-68.3,53.6,62,90,14.99,AR,light rain,0.25,0.0,2020-02-20 21:41:47
33,Bahile,10.0,118.79,78.8,74,20,18.34,PH,few clouds,0.0,0.0,2020-02-20 21:46:28
34,Novo Aripuana,-5.12,-60.38,82.0,90,100,1.32,BR,moderate rain,1.44,0.0,2020-02-20 21:46:28
35,Doka,13.52,35.77,75.43,26,27,11.16,SD,scattered clouds,0.0,0.0,2020-02-20 21:46:29
36,Punta Arenas,-53.15,-70.92,59.0,51,19,12.75,CL,few clouds,0.0,0.0,2020-02-20 21:46:30
37,Praia,14.92,-23.51,67.98,84,46,14.52,CV,scattered clouds,0.0,0.0,2020-02-20 21:46:30
38,Mataura,-46.19,168.86,66.38,74,87,3.87,NZ,overcast clouds,0.31,0.0,2020-02-20 21:46:31
39,Mar Del Plata,-38.0,-57.56,66.99,67,40,14.99,AR,light rain,0.5,0.0,2020-02-20 21:45:31
40,Butaritari,3.07,172.79,83.17,80,100,13.94,KI,light rain,0.0,0.0,2020-02-20 21:46:32
41,Kapaa,22.08,-159.32,78.8,69,90,19.46,US,overcast clouds,0.0,0.0,2020-02-20 21:46:32
42,Katobu,-4.94,122.53,74.34,94,100,2.1,ID,light rain,0.19,0.0,2020-02-20 21:46:33
43,Vyritsa,59.41,30.35,32.0,94,75,4.47,RU,broken clouds,0.0,0.0,2020-02-20 21:46:33
44,Cape Town,-33.93,18.42,68.0,77,0,17.22,ZA,clear sky,0.0,0.0,2020-02-20 21:44:02
45,Tiksi,71.69,128.87,-1.3,86,100,11.61,RU,overcast clouds,0.0,0.0,2020-02-20 21:46:34
46,East London,-33.02,27.91,75.92,78,70,14.72,ZA,light rain,0.0,0.0,2020-02-20 21:46:35
47,Bima,-8.47,118.72,72.72,95,99,0.51,ID,overcast clouds,0.0,0.0,2020-02-20 21:46:35
48,Coquimbo,-29.95,-71.34,64.4,77,75,11.41,CL,broken clouds,0.0,0.0,2020-02-20 21:46:36
49,Gizo,-8.1,156.84,79.11,84,55,5.26,SB,light rain,1.81,0.0,2020-02-20 21:46:37
50,Barrow,71.29,-156.79,-5.8,76,90,9.17,US,mist,0.0,0.0,2020-02-20 21:46:37
51,Katsuura,35.13,140.3,46.4,65,20,10.29,JP,few clouds,0.0,0.0,2020-02-20 21:46:38
52,Mahebourg,-20.41,57.7,78.8,69,40,10.29,MU,scattered clouds,0.0,0.0,2020-02-20 21:46:39
53,Haines Junction,60.75,-137.51,19.76,94,87,6.6,CA,light snow,0.0,1.06,2020-02-20 21:46:39
54,Esperance,-33.87,121.9,55.4,87,0,8.05,AU,clear sky,0.0,0.0,2020-02-20 21:46:40
55,Saint-Philippe,-21.36,55.77,77.0,73,90,8.05,RE,overcast clouds,0.63,0.0,2020-02-20 21:46:41
56,Onega,63.91,38.14,18.84,93,23,7.14,RU,few clouds,0.0,0.0,2020-02-20 21:46:41
57,Carnarvon,-24.87,113.63,78.8,74,100,11.41,AU,light rain,0.81,0.0,2020-02-20 21:46:42
58,Avarua,-21.21,-159.78,80.6,88,100,6.93,CK,light rain,0.0,0.0,2020-02-20 21:46:42
59,Amahai,-3.33,128.92,82.44,74,100,18.01,ID,overcast clouds,0.0,0.0,2020-02-20 21:46:43
60,Foz Do Iguacu,-25.55,-54.59,91.4,38,0,10.29,BR,clear sky,0.0,0.0,2020-02-20 21:44:41
61,Itarema,-2.92,-39.92,77.5,90,100,4.23,BR,light rain,0.25,0.0,2020-02-20 21:46:44
62,Sao Joao Da Barra,-21.64,-41.05,84.2,70,0,16.11,BR,clear sky,0.0,0.0,2020-02-20 21:46:44
63,Iqaluit,63.75,-68.51,-31.0,59,20,17.22,CA,few clouds,0.0,0.0,2020-02-20 21:46:45
64,Namibe,-15.2,12.15,75.43,75,99,17.38,AO,overcast clouds,0.0,0.0,2020-02-20 21:46:46
65,Cornwall,45.02,-74.73,15.8,47,1,10.29,CA,clear sky,0.0,0.0,2020-02-20 21:46:46
66,Kruisfontein,-34.0,24.73,64.78,91,55,3.89,ZA,broken clouds,0.0,0.0,2020-02-20 21:46:47
67,Hambantota,6.12,81.12,79.88,83,4,21.18,LK,clear sky,0.0,0.0,2020-02-20 21:46:48
68,Pacific Grove,36.62,-121.92,71.01,36,1,5.82,US,clear sky,0.0,0.0,2020-02-20 21:46:48
69,Airai,-8.93,125.41,66.94,91,80,4.59,TL,light rain,0.12,0.0,2020-02-20 21:46:49
70,Nioro,13.35,-15.75,88.03,8,58,6.89,GM,broken clouds,0.0,0.0,2020-02-20 21:46:49
71,Egvekinot,66.32,-179.17,-18.31,83,0,2.89,RU,clear sky,0.0,0.0,2020-02-20 21:46:50
72,Flin Flon,54.77,-101.86,33.8,47,20,14.99,CA,few clouds,0.0,0.0,2020-02-20 21:46:50
73,Kodiak,57.79,-152.41,37.4,86,90,4.7,US,overcast clouds,0.0,0.19,2020-02-20 21:46:51
74,Hermanus,-34.42,19.23,64.99,93,0,13.94,ZA,clear sky,0.0,0.0,2020-02-20 21:46:51
75,Villazon,-22.09,-65.59,59.2,56,100,11.99,BO,light rain,0.0,0.0,2020-02-20 21:46:52
76,Berlevag,70.86,29.09,28.2,78,96,38.39,NO,overcast clouds,0.0,0.0,2020-02-20 21:46:52
77,Pierre,44.37,-100.35,43.0,38,1,5.82,US,clear sky,0.0,0.0,2020-02-20 21:46:53
78,Pitimbu,-7.47,-34.81,77.0,94,90,5.82,BR,overcast clouds,0.25,0.0,2020-02-20 21:46:53
79,Roma,43.21,-75.46,23.0,53,90,19.46,US,overcast clouds,0.0,0.0,2020-02-20 21:45:29
80,Norman Wells,65.28,-126.83,17.6,92,20,4.7,CA,few clouds,0.0,0.0,2020-02-20 21:46:54
81,Boende,-0.22,20.87,77.0,70,31,2.55,CD,scattered clouds,0.0,0.0,2020-02-20 21:46:55
82,Dikson,73.51,80.55,-2.0,94,3,14.27,RU,clear sky,0.0,0.0,2020-02-20 21:42:02
83,Porto Santo,33.07,-16.34,57.2,87,75,18.34,PT,broken clouds,1.81,0.0,2020-02-20 21:43:36
84,Ponta Delgada,37.73,-25.67,53.6,66,40,8.05,PT,scattered clouds,0.0,0.0,2020-02-20 21:46:57
85,Kununurra,-15.77,128.73,78.8,83,100,5.82,AU,overcast clouds,0.0,0.0,2020-02-20 21:46:57
86,Keuruu,62.27,24.7,30.2,86,90,9.17,FI,overcast clouds,0.0,0.0,2020-02-20 21:46:58
87,Georgetown,5.41,100.34,80.6,78,20,2.24,MY,few clouds,0.0,0.0,2020-02-20 21:46:58
88,Izvestkovyy,48.98,131.55,-7.11,91,0,2.84,RU,clear sky,0.0,0.0,2020-02-20 21:46:59
89,Pallasovka,50.05,46.88,30.96,85,99,5.77,RU,overcast clouds,0.0,0.0,2020-02-20 21:46:59
90,Partizanskoye,55.5,94.39,21.04,81,57,10.31,RU,broken clouds,0.0,0.0,2020-02-20 21:47:00
91,Tuktoyaktuk,69.45,-133.04,-0.4,77,90,10.29,CA,light snow,0.0,0.25,2020-02-20 21:47:00
92,Chokurdakh,70.63,147.92,-14.17,96,93,3.56,RU,overcast clouds,0.0,0.0,2020-02-20 21:47:01
93,Castro,-24.79,-50.01,78.89,57,100,2.8,BR,overcast clouds,0.0,0.0,2020-02-20 21:47:01
94,Zyryanka,65.75,150.85,-21.8,89,93,9.91,RU,overcast clouds,0.0,0.0,2020-02-20 21:47:02
95,Griffith,41.53,-87.42,26.6,45,1,5.82,US,clear sky,0.0,0.0,2020-02-20 21:47:02
96,Machico,32.7,-16.77,57.2,71,40,8.05,PT,scattered clouds,0.69,0.0,2020-02-20 21:47:03
97,Belyy Yar,53.6,91.39,30.2,68,100,15.66,RU,light snow,0.0,0.12,2020-02-20 21:47:03
98,Synya,65.37,58.04,16.29,95,100,5.75,RU,light snow,0.0,0.0,2020-02-20 21:47:04
99,Cidreira,-30.18,-50.21,74.39,79,0,25.32,BR,clear sky,0.0,0.0,2020-02-20 21:47:04
100,Puerto Ayora,-0.74,-90.35,80.6,83,75,9.17,EC,light rain,0.5,0.0,2020-02-20 21:47:05
101,San Andres,12.58,-81.7,86.0,66,20,12.75,CO,few clouds,0.0,0.0,2020-02-20 21:43:14
102,Kikwit,-5.04,18.82,76.21,72,34,2.91,CD,scattered clouds,0.0,0.0,2020-02-20 21:47:06
103,Kloulklubed,7.04,134.26,78.8,78,90,9.17,PW,overcast clouds,0.56,0.0,2020-02-20 21:47:07
104,Kahului,20.89,-156.47,78.8,50,20,18.34,US,few clouds,0.0,0.0,2020-02-20 21:47:07
105,Waingapu,-9.66,120.26,82.9,75,100,15.43,ID,overcast clouds,1.06,0.0,2020-02-20 21:47:08
106,Saint George,37.1,-113.58,57.2,15,1,5.82,US,clear sky,0.0,0.0,2020-02-20 21:44:05
107,Chalus,36.66,51.42,46.4,100,90,1.25,IR,overcast clouds,0.19,0.0,2020-02-20 21:47:09
108,Faanui,-16.48,-151.75,82.69,78,100,18.72,PF,light rain,0.38,0.0,2020-02-20 21:47:10
109,Port Elizabeth,-33.92,25.57,68.0,88,32,13.87,ZA,light rain,0.0,0.0,2020-02-20 21:47:10
110,Abapo,-18.83,-63.47,73.24,94,94,3.6,BO,light rain,0.38,0.0,2020-02-20 21:47:11
111,Caloundra,-26.8,153.13,82.0,73,40,5.82,AU,scattered clouds,0.88,0.0,2020-02-20 21:46:51
112,Prince Rupert,54.32,-130.32,39.2,80,75,13.87,CA,broken clouds,0.0,0.0,2020-02-20 21:47:13
113,Presidencia Roque Saenz Pena,-26.79,-60.44,85.35,46,69,5.61,AR,broken clouds,0.0,0.0,2020-02-20 21:47:14
114,Kerman,30.28,57.08,53.6,37,0,4.7,IR,clear sky,0.0,0.0,2020-02-20 21:47:15
115,Matagami,49.75,-77.63,8.6,55,75,12.75,CA,broken clouds,0.0,0.0,2020-02-20 21:47:15
116,Kamina,-8.74,24.99,67.42,87,100,1.28,CD,overcast clouds,0.0,0.0,2020-02-20 21:47:16
117,Saint-Joseph,-21.37,55.62,77.0,73,90,8.05,RE,overcast clouds,0.0,0.0,2020-02-20 21:47:16
118,Jamestown,42.1,-79.24,24.01,61,90,10.29,US,light snow,0.0,0.0,2020-02-20 21:46:31
119,Louis Trichardt,-23.04,29.9,70.38,73,15,0.67,ZA,few clouds,0.0,0.0,2020-02-20 21:47:17
120,Isangel,-19.55,169.27,82.4,78,20,5.82,VU,few clouds,0.13,0.0,2020-02-20 21:47:18
121,Ilulissat,69.22,-51.1,-0.4,59,20,10.29,GL,few clouds,0.0,0.0,2020-02-20 21:47:18
122,Dandong,40.13,124.39,34.02,87,100,7.43,CN,overcast clouds,0.0,0.0,2020-02-20 21:47:19
123,Komsomolskiy,40.43,71.72,33.8,69,0,4.7,UZ,clear sky,0.0,0.0,2020-02-20 21:47:19
124,Alofi,-19.06,-169.92,82.4,88,75,20.8,NU,broken clouds,0.0,0.0,2020-02-20 21:47:20
125,Longyearbyen,78.22,15.64,6.8,60,40,14.99,SJ,scattered clouds,0.0,0.13,2020-02-20 21:44:27
126,High Level,58.52,-117.14,41.0,32,20,12.75,CA,few clouds,0.0,0.0,2020-02-20 21:47:21
127,Ipilan,8.84,117.9,72.64,86,47,6.82,PH,light rain,0.31,0.0,2020-02-20 21:47:21
128,Sompeta,18.93,84.6,67.05,73,0,2.66,IN,clear sky,0.0,0.0,2020-02-20 21:47:22
129,Havoysund,71.0,24.66,24.8,73,67,23.04,NO,broken clouds,0.0,0.0,2020-02-20 21:47:22
130,Plettenberg Bay,-34.05,23.37,66.36,89,44,2.35,ZA,scattered clouds,0.0,0.0,2020-02-20 21:47:23
131,Sao Filipe,14.9,-24.5,70.88,71,16,21.59,CV,few clouds,0.0,0.0,2020-02-20 21:47:23
132,Neiafu,-18.65,-173.98,82.4,74,20,11.41,TO,few clouds,0.0,0.0,2020-02-20 21:47:24
133,Thompson,55.74,-97.86,28.4,54,75,14.99,CA,broken clouds,0.0,0.0,2020-02-20 21:44:26
134,Tasiilaq,65.61,-37.64,23.0,73,100,8.05,GL,light snow,0.0,0.13,2020-02-20 21:47:26
135,Mount Isa,-20.73,139.5,78.8,19,0,6.93,AU,clear sky,0.0,0.0,2020-02-20 21:47:26
136,Hasaki,35.73,140.83,42.8,81,75,6.93,JP,broken clouds,0.0,0.0,2020-02-20 21:47:27
137,Khatanga,71.97,102.5,2.32,88,95,7.81,RU,overcast clouds,0.0,0.13,2020-02-20 21:47:27
138,Kaitangata,-46.28,169.85,64.99,78,100,5.99,NZ,overcast clouds,0.0,0.0,2020-02-20 21:47:28
139,Salalah,17.02,54.09,77.0,69,75,5.82,OM,broken clouds,0.0,0.0,2020-02-20 21:47:28
140,Amapa,1.0,-52.0,74.61,93,100,2.68,BR,light rain,0.0,0.0,2020-02-20 21:47:29
141,Bethel,41.37,-73.41,37.0,29,20,8.05,US,few clouds,0.0,0.0,2020-02-20 21:45:48
142,Okhotsk,59.38,143.3,-16.53,74,0,7.09,RU,clear sky,0.0,0.0,2020-02-20 21:47:30
143,Saskylakh,71.92,114.08,-18.9,99,90,3.42,RU,overcast clouds,0.0,0.0,2020-02-20 21:47:31
144,Keflavik,64.0,-22.56,33.8,74,75,11.41,IS,broken clouds,0.0,0.0,2020-02-20 21:47:31
145,Villaviciosa,43.48,-5.44,55.0,93,75,1.12,ES,light intensity drizzle,0.0,0.0,2020-02-20 21:47:32
146,Juneau,58.3,-134.42,35.6,93,90,32.21,US,moderate rain,0.0,7.25,2020-02-20 21:45:16
147,Villa Bruzual,9.33,-69.12,94.17,35,96,4.38,VE,overcast clouds,0.0,0.0,2020-02-20 21:47:33
148,Mackenzie,55.3,-123.17,33.8,55,20,9.17,CA,few clouds,0.0,0.19,2020-02-20 21:47:34
149,Kalevala,65.2,31.17,13.86,82,74,7.96,RU,broken clouds,0.0,0.0,2020-02-20 21:47:34
150,Bilma,18.69,12.92,66.87,20,25,7.74,NE,scattered clouds,0.0,0.0,2020-02-20 21:47:35
151,Santo Amaro Da Imperatriz,-27.69,-48.78,81.0,88,75,11.41,BR,broken clouds,0.37,0.0,2020-02-20 21:47:35
152,Petropavlovsk-Kamchatskiy,53.05,158.65,-0.4,59,100,11.18,RU,overcast clouds,0.0,0.0,2020-02-20 21:47:36
153,Erie,42.77,-78.67,26.01,57,75,11.41,US,shower snow,0.0,0.13,2020-02-20 21:47:36
154,Molochnoye,59.29,39.68,31.44,95,95,2.8,RU,overcast clouds,0.0,0.0,2020-02-20 21:47:37
155,Maceio,-9.67,-35.74,75.2,94,75,9.17,BR,light rain,0.0,0.0,2020-02-20 21:42:56
156,Aklavik,68.22,-135.01,1.4,77,40,2.24,CA,scattered clouds,0.0,0.0,2020-02-20 21:47:38
157,Constitucion,-35.33,-72.42,69.57,36,0,4.0,CL,clear sky,0.0,0.0,2020-02-20 21:47:39
158,Nyurba,63.28,118.33,5.43,96,100,4.07,RU,overcast clouds,0.0,0.0,2020-02-20 21:47:39
159,Udachnyy,66.42,112.4,-2.2,84,25,6.71,RU,scattered clouds,0.0,0.0,2020-02-20 21:47:40
160,Vardo,70.37,31.11,23.0,67,75,16.11,NO,broken clouds,0.0,0.0,2020-02-20 21:47:40
161,Hearst,49.68,-83.67,17.74,69,100,16.6,CA,overcast clouds,0.0,0.0,2020-02-20 21:43:16
162,San Patricio,19.22,-104.7,84.2,74,20,11.41,MX,few clouds,0.0,0.0,2020-02-20 21:47:41
163,Porto Velho,-8.76,-63.9,86.0,66,40,5.82,BR,shower rain,3.94,0.0,2020-02-20 21:46:07
164,Hermiston,45.84,-119.29,51.01,42,1,5.82,US,clear sky,0.0,0.0,2020-02-20 21:47:42
165,Narsaq,60.92,-46.05,30.2,28,100,17.22,GL,overcast clouds,0.0,0.0,2020-02-20 21:47:43
166,Yar-Sale,66.83,70.83,20.93,96,100,8.41,RU,light snow,0.0,1.06,2020-02-20 21:47:43
167,Tura,25.52,90.22,63.72,44,33,2.73,IN,scattered clouds,0.0,0.0,2020-02-20 21:47:44
168,Eyl,7.98,49.82,77.77,83,21,17.47,SO,few clouds,0.0,0.0,2020-02-20 21:47:45
169,Bilibino,68.05,166.44,-26.48,99,100,0.89,RU,overcast clouds,0.0,0.0,2020-02-20 21:47:45
170,Port Shepstone,-30.74,30.45,72.28,91,0,9.64,ZA,light rain,0.0,0.0,2020-02-20 21:47:46
171,Ancud,-41.87,-73.82,69.8,37,0,10.29,CL,clear sky,0.0,0.0,2020-02-20 21:47:46
172,Sosnovo-Ozerskoye,52.52,111.54,-1.14,93,92,5.17,RU,overcast clouds,0.0,0.0,2020-02-20 21:47:47
173,Bertoua,4.58,13.68,76.46,31,16,2.68,CM,few clouds,0.0,0.0,2020-02-20 21:47:47
174,Victoria,22.29,114.16,63.0,67,0,4.7,HK,clear sky,0.0,0.0,2020-02-20 21:44:45
175,Chuy,-33.7,-53.46,68.29,47,6,16.96,UY,clear sky,0.0,0.0,2020-02-20 21:47:49
176,Saint Anthony,45.02,-93.22,17.01,33,1,5.82,US,clear sky,0.0,0.0,2020-02-20 21:47:49
177,Talnakh,69.49,88.4,14.0,92,90,4.47,RU,fog,0.0,0.0,2020-02-20 21:47:50
178,Jaguariaiva,-24.25,-49.71,80.01,90,100,1.99,BR,light rain,0.0,0.0,2020-02-20 21:47:50
179,Niksar,40.59,36.95,33.1,72,28,8.9,TR,scattered clouds,0.0,0.0,2020-02-20 21:47:51
180,Dicabisagan,17.08,122.42,73.29,84,34,12.95,PH,light rain,1.69,0.0,2020-02-20 21:47:51
181,Shizuishan,39.23,106.77,27.63,32,70,8.43,CN,broken clouds,0.0,0.0,2020-02-20 21:47:52
182,Hilo,19.73,-155.09,78.8,54,75,5.82,US,broken clouds,0.25,0.0,2020-02-20 21:47:53
183,Kudahuvadhoo,2.67,72.89,83.14,75,1,15.88,MV,clear sky,0.19,0.0,2020-02-20 21:47:54
184,Charlestown,-32.95,151.67,72.0,77,75,2.62,AU,broken clouds,0.0,0.0,2020-02-20 21:47:54
185,Roswell,34.02,-84.36,42.01,100,90,7.52,US,moderate rain,1.19,0.0,2020-02-20 21:47:55
186,Hay River,60.82,-115.8,37.4,44,20,18.34,CA,few clouds,0.0,0.0,2020-02-20 21:47:55
187,Karachi,24.91,67.08,71.6,28,0,16.11,PK,clear sky,0.0,0.0,2020-02-20 21:47:16
188,Yaan,7.38,8.57,84.96,14,4,4.21,NG,clear sky,0.0,0.0,2020-02-20 21:47:56
189,Arraial Do Cabo,-22.97,-42.03,82.4,74,0,13.87,BR,clear sky,0.0,0.0,2020-02-20 21:47:56
190,Port Lincoln,-34.73,135.87,61.16,67,98,11.77,AU,overcast clouds,0.0,0.0,2020-02-20 21:47:57
191,Karaton,-6.34,106.1,77.0,88,40,2.24,ID,scattered clouds,0.0,0.0,2020-02-20 21:47:58
192,Novikovo,51.15,37.89,29.01,82,3,0.94,RU,clear sky,0.0,0.0,2020-02-20 21:47:58
193,Port Augusta,-32.5,137.77,60.8,72,54,8.05,AU,broken clouds,0.0,0.0,2020-02-20 21:47:59
194,Tabou,4.42,-7.35,78.19,89,40,2.21,CI,scattered clouds,0.0,0.0,2020-02-20 21:48:00
195,Okha,53.57,142.95,-1.73,91,100,10.36,RU,overcast clouds,0.0,0.0,2020-02-20 21:48:00
196,Asau,46.43,26.4,32.0,86,20,4.7,RO,few clouds,0.0,0.0,2020-02-20 21:48:01
197,Vung Tau,10.35,107.08,71.87,75,0,6.38,VN,clear sky,0.0,0.0,2020-02-20 21:45:06
198,Alagoa Grande,-7.16,-35.63,71.6,88,75,3.36,BR,broken clouds,1.56,0.0,2020-02-20 21:48:02
199,Awbari,26.59,12.78,56.53,32,0,8.41,LY,clear sky,0.0,0.0,2020-02-20 21:48:03
200,Nikolskoye,59.7,30.79,33.01,95,75,4.47,RU,broken clouds,0.0,0.0,2020-02-20 21:48:03
201,Farafangana,-22.82,47.83,79.75,81,81,21.18,MG,moderate rain,2.31,0.0,2020-02-20 21:48:04
202,Amarante Do Maranhao,-5.57,-46.74,71.56,99,100,4.54,BR,heavy intensity rain,4.19,0.0,2020-02-20 21:48:04
203,Asmara,15.33,38.93,60.57,90,82,2.73,ER,broken clouds,0.0,0.0,2020-02-20 21:48:05
204,Sayyan,15.17,44.32,57.06,41,53,1.52,YE,broken clouds,0.0,0.0,2020-02-20 21:48:05
205,Dunedin,-45.87,170.5,61.0,89,100,17.18,NZ,overcast clouds,0.0,0.0,2020-02-20 21:46:25
206,Cabedelo,-6.98,-34.83,77.0,94,90,5.82,BR,overcast clouds,1.13,0.0,2020-02-20 21:47:36
207,Rio Grande,-32.03,-52.1,73.4,60,75,16.11,BR,broken clouds,0.0,0.0,2020-02-20 21:44:51
208,Snasa,64.25,12.38,35.6,93,75,4.7,NO,broken clouds,0.0,4.44,2020-02-20 21:48:07
209,Sangar,63.92,127.47,-12.42,95,100,14.38,RU,light snow,0.0,0.63,2020-02-20 21:48:08
210,Jacareacanga,-6.22,-57.75,77.0,94,90,2.24,BR,light rain,1.25,0.0,2020-02-20 21:48:08
211,Lorengau,-2.02,147.27,82.9,76,100,12.26,PG,light rain,0.38,0.0,2020-02-20 21:48:09
212,Ostrovnoy,68.05,39.51,11.73,79,94,19.82,RU,overcast clouds,0.0,0.0,2020-02-20 21:48:09
213,Kalmunai,7.42,81.82,81.03,81,10,18.66,LK,clear sky,1.06,0.0,2020-02-20 21:48:10
214,Ekhabi,53.51,142.97,-1.73,91,100,10.36,RU,overcast clouds,0.0,0.0,2020-02-20 21:48:10
215,Langsa,4.47,97.97,72.97,90,12,3.2,ID,few clouds,0.0,0.0,2020-02-20 21:48:11
216,Nove Mesto Nad Metuji,50.34,16.15,43.0,70,90,9.17,CZ,overcast clouds,0.0,0.0,2020-02-20 21:48:11
217,Shenkursk,62.11,42.9,20.01,96,3,2.57,RU,clear sky,0.0,0.0,2020-02-20 21:48:12
218,Mangla,31.89,72.38,55.2,66,6,9.66,PK,clear sky,0.0,0.0,2020-02-20 21:48:12
219,Overyata,58.09,55.87,33.8,95,75,11.18,RU,broken clouds,0.0,0.31,2020-02-20 21:48:13
220,Vila Franca Do Campo,37.72,-25.43,53.6,66,40,8.05,PT,scattered clouds,0.0,0.0,2020-02-20 21:48:13
221,Pisco,-13.7,-76.22,73.99,30,40,21.92,PE,scattered clouds,0.0,0.0,2020-02-20 21:46:47
222,Clyde River,70.47,-68.59,-14.8,83,40,13.87,CA,scattered clouds,0.0,0.0,2020-02-20 21:48:14
223,Summerside,46.4,-63.79,8.6,42,20,10.29,CA,few clouds,0.0,0.0,2020-02-20 21:48:15
224,Buritis,-15.62,-46.42,76.14,87,98,1.45,BR,moderate rain,1.63,0.0,2020-02-20 21:46:58
225,Toamasina,-18.17,49.38,78.8,94,40,4.45,MG,shower rain,1.75,0.0,2020-02-20 21:48:16
226,Saravan,39.72,45.65,35.6,93,90,6.93,AM,mist,0.0,0.0,2020-02-20 21:48:17
227,Troitskoye,52.98,84.68,25.47,79,100,11.01,RU,overcast clouds,0.0,0.0,2020-02-20 21:48:17
228,Almaznyy,48.04,40.05,33.8,100,75,13.42,RU,broken clouds,0.0,0.38,2020-02-20 21:48:18
229,Ahipara,-35.17,173.17,70.52,78,76,10.02,NZ,broken clouds,0.0,0.0,2020-02-20 21:48:18
230,Roald,62.58,6.13,39.99,74,40,17.22,NO,scattered clouds,0.0,0.0,2020-02-20 21:48:19
231,Broome,42.25,-75.83,26.01,62,75,8.63,US,broken clouds,0.0,0.0,2020-02-20 21:48:20
232,Buraydah,26.33,43.98,55.4,62,0,6.93,SA,clear sky,0.0,0.0,2020-02-20 21:48:21
233,Nanortalik,60.14,-45.24,26.02,71,100,6.02,GL,overcast clouds,0.0,0.0,2020-02-20 21:48:22
234,Ixtapa,20.7,-105.2,78.8,78,40,11.41,MX,scattered clouds,0.0,0.0,2020-02-20 21:48:22
235,Mocuba,-16.84,36.99,73.98,97,2,1.5,MZ,clear sky,0.0,0.0,2020-02-20 21:48:23
236,Sinnamary,5.38,-52.95,78.31,73,100,11.52,GF,overcast clouds,0.0,0.0,2020-02-20 21:48:23
237,Ornskoldsvik,63.29,18.72,33.8,96,90,19.46,SE,light snow,0.0,2.5,2020-02-20 21:48:24
238,Te Anau,-45.42,167.72,58.86,91,91,4.56,NZ,light rain,0.38,0.0,2020-02-20 21:48:05
239,Hun,29.13,15.95,55.42,56,0,4.45,LY,clear sky,0.0,0.0,2020-02-20 21:48:25
240,Progreso,21.28,-89.67,89.6,55,75,13.87,MX,broken clouds,0.0,0.0,2020-02-20 21:48:25
241,Shenjiamen,29.96,122.3,52.86,83,0,8.46,CN,clear sky,0.0,0.0,2020-02-20 21:48:26
242,Zhezkazgan,47.8,67.71,16.11,88,100,8.23,KZ,overcast clouds,0.0,0.0,2020-02-20 21:48:26
243,Sapele,5.89,5.68,82.6,75,0,7.54,NG,clear sky,0.0,0.0,2020-02-20 21:48:27
244,Simiti,7.96,-73.94,95.86,34,51,2.66,CO,broken clouds,0.0,0.0,2020-02-20 21:48:27
245,Cayenne,4.93,-52.33,82.4,65,20,6.93,GF,few clouds,0.0,0.0,2020-02-20 21:48:28
246,Kalispell,48.2,-114.31,35.01,47,1,3.36,US,clear sky,0.0,0.0,2020-02-20 21:45:46
247,Lompoc,34.64,-120.46,73.4,28,1,6.93,US,clear sky,0.0,0.0,2020-02-20 21:45:47
248,Nerchinskiy Zavod,51.31,119.61,2.05,89,100,3.22,RU,overcast clouds,0.0,0.0,2020-02-20 21:48:29
249,Severo-Kurilsk,50.68,156.12,16.77,91,99,17.2,RU,light snow,0.0,1.25,2020-02-20 21:48:30
250,Caceres,39.52,-6.37,51.01,77,0,4.88,ES,clear sky,0.0,0.0,2020-02-20 21:48:30
251,Vestmanna,62.16,-7.17,41.0,75,100,31.09,FO,light snow,0.0,0.56,2020-02-20 21:48:31
252,Barra Patuca,15.8,-84.28,80.31,79,49,13.35,HN,light rain,0.31,0.0,2020-02-20 21:48:31
253,Tual,-5.67,132.75,82.04,79,99,16.49,ID,moderate rain,5.06,0.0,2020-02-20 21:48:32
254,Bambous Virieux,-20.34,57.76,78.8,69,40,10.29,MU,scattered clouds,0.0,0.0,2020-02-20 21:48:32
255,Biak,-0.91,122.88,81.12,72,88,4.32,ID,light rain,0.69,0.0,2020-02-20 21:48:33
256,Thinadhoo,0.53,72.93,83.25,80,16,13.53,MV,light rain,0.38,0.0,2020-02-20 21:48:33
257,Half Moon Bay,37.46,-122.43,69.01,45,40,4.7,US,scattered clouds,0.0,0.0,2020-02-20 21:48:34
258,Vanimo,-2.67,141.3,81.16,82,92,16.26,PG,light rain,1.81,0.0,2020-02-20 21:48:34
259,Portland,45.52,-122.68,57.99,34,20,13.87,US,few clouds,0.0,0.0,2020-02-20 21:48:35
260,Havelock,34.88,-76.9,42.8,81,90,17.22,US,moderate rain,7.31,0.0,2020-02-20 21:46:33
261,Mawlaik,23.63,94.42,58.75,56,0,2.1,MM,clear sky,0.0,0.0,2020-02-20 21:48:36
262,Mehamn,71.04,27.85,24.8,73,89,27.51,NO,overcast clouds,0.0,0.0,2020-02-20 21:48:37
263,Port-Gentil,-0.72,8.78,84.2,83,20,11.41,GA,few clouds,0.12,0.0,2020-02-20 21:48:37
264,Funtua,11.52,7.31,71.53,17,0,10.65,NG,clear sky,0.0,0.0,2020-02-20 21:48:38
265,Vieste,41.88,16.18,39.2,86,5,9.17,IT,clear sky,0.0,0.0,2020-02-20 21:48:38
266,Cecava,44.69,17.77,32.0,74,77,3.36,BA,broken clouds,0.0,0.0,2020-02-20 21:48:39
267,Namatanai,-3.67,152.43,82.36,77,45,14.7,PG,scattered clouds,0.0,0.0,2020-02-20 21:48:39
268,Bray,53.2,-6.1,39.99,80,20,12.75,IE,few clouds,0.0,0.0,2020-02-20 21:48:40
269,Yaypan,40.38,70.82,39.63,47,0,4.9,UZ,clear sky,0.0,0.0,2020-02-20 21:48:40
270,Wladyslawowo,54.79,18.4,41.0,69,75,14.99,PL,broken clouds,0.0,0.0,2020-02-20 21:48:41
271,Green River,41.53,-109.47,19.4,52,1,3.71,US,clear sky,0.0,0.0,2020-02-20 21:45:21
272,Warsaw,52.23,21.01,37.99,92,45,6.93,PL,scattered clouds,0.0,0.0,2020-02-20 21:48:42
273,Fortuna,40.6,-124.16,61.0,71,1,10.29,US,clear sky,0.0,0.0,2020-02-20 21:48:42
274,Mareeba,-17.0,145.43,80.6,83,75,11.41,AU,light intensity shower rain,0.0,0.0,2020-02-20 21:45:21
275,Selma,36.57,-119.61,73.99,26,1,2.21,US,clear sky,0.0,0.0,2020-02-20 21:48:43
276,Cervo,43.67,-7.41,52.0,1,100,4.0,ES,light rain,0.0,0.0,2020-02-20 21:48:44
277,Ayni,39.39,68.54,23.61,9,0,9.48,TJ,clear sky,0.0,0.0,2020-02-20 21:48:45
278,Geraldton,-28.77,114.6,75.2,78,99,3.36,AU,overcast clouds,0.19,0.0,2020-02-20 21:48:45
279,Varadero,23.15,-81.25,84.2,66,40,13.87,CU,scattered clouds,0.0,0.0,2020-02-20 21:48:46
280,Chunskiy,56.08,99.63,19.51,92,94,5.26,RU,overcast clouds,0.0,0.0,2020-02-20 21:48:46
281,Muroto,33.28,134.15,37.4,74,20,10.29,JP,few clouds,0.0,0.0,2020-02-20 21:48:47
282,Mitsamiouli,-11.38,43.28,84.97,71,100,6.8,KM,overcast clouds,0.0,0.0,2020-02-20 21:48:47
283,Leningradskiy,69.38,178.42,-6.9,92,100,21.59,RU,light snow,0.0,0.13,2020-02-20 21:48:48
284,Manbij,36.53,37.95,42.8,75,40,6.93,SY,scattered clouds,0.0,0.0,2020-02-20 21:48:48
285,Sioux Lookout,50.1,-91.92,21.2,53,40,14.99,CA,scattered clouds,0.0,0.0,2020-02-20 21:48:49
286,Mahanoro,-19.9,48.8,80.31,79,100,9.42,MG,light rain,3.06,0.0,2020-02-20 21:48:49
287,Palmer,42.16,-72.33,33.8,36,75,12.75,US,broken clouds,0.0,0.0,2020-02-20 21:48:50
288,Souillac,-20.52,57.52,78.8,69,40,10.29,MU,scattered clouds,0.0,0.0,2020-02-20 21:48:51
289,Hillsborough,37.57,-122.38,69.01,45,40,4.7,US,scattered clouds,0.0,0.0,2020-02-20 21:48:51
290,Roblin,51.23,-101.36,22.89,83,0,11.39,CA,clear sky,0.0,0.0,2020-02-20 21:45:41
291,Semme,46.2,1.5,48.0,93,90,8.05,FR,light intensity drizzle,0.31,0.0,2020-02-20 21:48:52
292,Vao,-22.67,167.48,79.38,71,0,6.87,NC,clear sky,0.0,0.0,2020-02-20 21:48:53
293,Sitka,57.05,-135.33,37.4,86,90,25.28,US,light rain,18.06,0.0,2020-02-20 21:48:53
294,Mnogovershinnyy,53.94,139.92,-3.42,94,23,6.31,RU,few clouds,0.0,0.0,2020-02-20 21:48:54
295,Banes,20.96,-75.72,87.8,45,20,12.75,CU,few clouds,0.0,0.0,2020-02-20 21:48:54
296,Porto Novo,6.5,2.6,86.0,79,20,10.29,BJ,few clouds,0.0,0.0,2020-02-20 21:48:55
297,Nanton,50.35,-113.77,44.01,41,0,14.0,CA,clear sky,0.0,0.0,2020-02-20 21:48:55
298,Provideniya,64.38,-173.3,-5.8,70,0,4.47,RU,clear sky,0.0,0.0,2020-02-20 21:48:56
299,Dhidhdhoo,6.88,73.1,82.2,65,0,8.3,MV,clear sky,0.0,0.0,2020-02-20 21:48:56
300,Dingle,11.0,122.67,71.35,93,69,13.8,PH,light rain,1.25,0.0,2020-02-20 21:48:57
301,Daru,-9.08,143.21,75.06,92,100,5.46,PG,overcast clouds,0.0,0.0,2020-02-20 21:48:57
302,Kamaishi,39.27,141.88,31.48,69,0,6.78,JP,clear sky,0.0,0.0,2020-02-20 21:48:58
303,Codrington,-38.27,141.97,59.56,77,0,13.47,AU,clear sky,0.31,0.0,2020-02-20 21:48:59
304,Klaksvik,62.23,-6.59,41.0,75,95,31.09,FO,light rain,0.37,0.0,2020-02-20 21:48:59
305,Winnemucca,40.97,-117.74,48.2,18,1,11.41,US,clear sky,0.0,0.0,2020-02-20 21:45:31
306,Manicore,-5.81,-61.3,84.96,69,100,1.63,BR,light rain,3.25,0.0,2020-02-20 21:49:00
307,Cassilandia,-19.11,-51.73,83.71,75,97,2.82,BR,overcast clouds,0.0,0.0,2020-02-20 21:48:55
308,Loubomo,-4.2,12.67,75.31,84,0,3.31,CG,clear sky,0.0,0.0,2020-02-20 21:49:01
309,Shimoda,34.67,138.95,45.0,83,54,1.01,JP,broken clouds,0.0,0.0,2020-02-20 21:49:01
310,Kidal,18.44,1.41,72.93,12,76,10.58,ML,broken clouds,0.0,0.0,2020-02-20 21:44:05
311,Kovdor,67.57,30.48,10.54,78,71,11.99,RU,broken clouds,0.0,0.0,2020-02-20 21:49:02
312,Raudeberg,61.99,5.14,39.2,80,75,23.04,NO,light rain,1.31,0.0,2020-02-20 21:49:03
313,Hithadhoo,-0.6,73.08,83.55,76,0,12.48,MV,clear sky,0.0,0.0,2020-02-20 21:49:03
314,Belaya Gora,68.53,146.42,-14.51,89,79,5.55,RU,broken clouds,0.0,0.0,2020-02-20 21:49:04
315,Ponta Do Sol,32.67,-17.1,57.2,71,40,8.05,PT,scattered clouds,0.69,0.0,2020-02-20 21:49:05
316,Panama City,8.99,-79.52,89.6,52,40,12.75,PA,scattered clouds,0.0,0.0,2020-02-20 21:46:37
317,Lira,2.23,32.91,75.78,51,61,3.02,UG,broken clouds,0.0,0.0,2020-02-20 21:49:06
318,Port Blair,11.67,92.75,78.8,88,20,5.82,IN,mist,0.0,0.0,2020-02-20 21:49:06
319,Colquechaca,-18.67,-66.02,49.14,83,100,7.23,BO,moderate rain,0.63,0.0,2020-02-20 21:49:07
320,Beloha,-25.17,45.05,79.61,60,23,12.46,MG,few clouds,0.0,0.0,2020-02-20 21:49:07
321,Popondetta,-8.75,148.25,73.9,93,100,0.94,PG,overcast clouds,0.31,0.0,2020-02-20 21:49:08
322,Valle De Guadalupe,21.0,-102.62,81.1,16,0,6.49,MX,clear sky,0.0,0.0,2020-02-20 21:49:08
323,Zabaykalsk,49.63,117.32,5.14,96,100,8.3,RU,light snow,0.0,0.31,2020-02-20 21:49:09
324,Balakhninskiy,58.01,114.28,0.43,97,100,3.0,RU,light snow,0.0,0.56,2020-02-20 21:49:09
325,Indiana,40.0,-86.25,30.2,58,75,11.41,US,broken clouds,0.0,0.0,2020-02-20 21:49:10
326,Vila Velha,-20.33,-40.29,84.0,78,35,14.99,BR,light rain,0.19,0.0,2020-02-20 21:46:45
327,Nizhniy Ufaley,55.92,59.98,25.16,96,93,7.81,RU,light snow,0.0,0.13,2020-02-20 21:49:11
328,Virginia Beach,36.85,-75.98,37.0,83,90,10.29,US,moderate rain,3.25,0.0,2020-02-20 21:45:36
329,Maragogi,-9.01,-35.22,80.33,85,100,21.85,BR,moderate rain,0.19,0.0,2020-02-20 21:49:12
330,Vrede,-27.43,29.17,59.83,88,1,6.49,ZA,clear sky,0.0,0.0,2020-02-20 21:49:12
331,Korem,12.51,39.52,57.34,94,96,4.59,ET,overcast clouds,0.0,0.0,2020-02-20 21:49:13
332,Kingsport,36.55,-82.56,35.6,86,90,3.36,US,light rain,0.0,0.56,2020-02-20 21:48:43
333,San Quintin,30.48,-115.95,67.1,60,96,8.79,MX,overcast clouds,0.0,0.0,2020-02-20 21:49:14
334,Baykit,61.67,96.37,14.13,95,91,3.94,RU,overcast clouds,0.0,0.0,2020-02-20 21:49:14
335,Prince Albert,53.2,-105.77,24.8,58,20,11.41,CA,few clouds,0.0,0.0,2020-02-20 21:48:05
336,Las Vegas,36.17,-115.14,62.6,12,0,19.46,US,clear sky,0.0,0.0,2020-02-20 21:44:23
337,Hare Bay,48.85,-54.01,8.6,60,75,18.34,CA,broken clouds,0.0,0.0,2020-02-20 21:49:16
338,Indianola,41.36,-93.56,25.0,38,1,4.7,US,haze,0.0,0.0,2020-02-20 21:45:28
339,Coihaique,-45.58,-72.07,71.6,37,0,8.05,CL,clear sky,0.0,0.0,2020-02-20 21:49:17
340,Sistranda,63.73,8.83,37.99,93,75,18.34,NO,light intensity drizzle rain,0.0,0.0,2020-02-20 21:49:18
341,Susangerd,31.56,48.18,59.0,87,0,4.7,IR,mist,0.0,0.0,2020-02-20 21:49:18
342,Shaowu,27.34,117.48,48.76,76,89,3.04,CN,overcast clouds,0.0,0.0,2020-02-20 21:49:19
343,Morwell,-38.23,146.4,57.99,85,57,1.99,AU,broken clouds,0.13,0.0,2020-02-20 21:49:19
344,Bom Sucesso,-21.03,-44.76,74.37,87,48,1.72,BR,light rain,2.63,0.0,2020-02-20 21:49:20
345,Burdur,37.72,30.29,46.4,93,75,11.41,TR,light intensity shower rain,0.75,0.0,2020-02-20 21:49:20
346,Kuala Terengganu,5.33,103.14,80.6,83,20,8.05,MY,few clouds,0.88,0.0,2020-02-20 21:49:21
347,Akyab,20.15,92.9,65.71,72,0,4.76,MM,clear sky,0.0,0.0,2020-02-20 21:49:21
348,Edirne,41.68,26.56,41.0,88,100,3.0,TR,overcast clouds,0.0,0.0,2020-02-20 21:48:32
349,Caimito,8.81,-75.41,95.0,47,40,8.9,CO,scattered clouds,0.0,0.0,2020-02-20 21:49:22
350,Palo Alto,37.44,-122.14,69.8,45,40,4.7,US,scattered clouds,0.0,0.0,2020-02-20 21:48:26
351,Bouloupari,-21.87,166.05,84.2,62,0,2.24,NC,clear sky,0.0,0.0,2020-02-20 21:49:24
352,Manokwari,-0.87,134.08,71.47,78,23,4.79,ID,few clouds,0.0,0.0,2020-02-20 21:45:01
353,Pouebo,-20.4,164.57,77.25,78,0,3.09,NC,light rain,0.13,0.0,2020-02-20 21:49:25
354,Henties Bay,-22.12,14.28,66.0,91,78,5.86,NA,broken clouds,0.0,0.0,2020-02-20 21:49:25
355,San Ignacio,17.16,-89.07,93.2,49,40,6.93,BZ,scattered clouds,0.0,0.0,2020-02-20 21:49:26
356,San Juan De Los Morros,9.91,-67.35,81.5,53,99,3.65,VE,overcast clouds,0.0,0.0,2020-02-20 21:45:53
357,Uruzgan,32.83,66.0,31.82,47,33,8.25,AF,scattered clouds,0.0,0.0,2020-02-20 21:49:27
358,Inhambane,-23.86,35.38,80.2,75,3,10.56,MZ,clear sky,0.0,0.0,2020-02-20 21:49:28
359,Milos,36.75,24.43,50.0,87,2,6.93,GR,light rain,3.38,0.0,2020-02-20 21:49:29
360,Zhigansk,66.77,123.37,-7.02,94,100,22.39,RU,light snow,0.0,0.25,2020-02-20 21:49:29
361,San Cristobal,7.77,-72.22,87.8,58,40,10.29,VE,scattered clouds,0.88,0.0,2020-02-20 21:49:30
362,Elizabeth City,36.29,-76.25,37.99,100,90,16.11,US,moderate rain,4.87,0.0,2020-02-20 21:49:30
363,Kiama,-34.68,150.87,72.0,88,75,3.02,AU,light rain,0.38,0.0,2020-02-20 21:49:31
364,Sao Felix Do Xingu,-6.64,-51.99,79.18,90,100,3.91,BR,light rain,5.06,0.0,2020-02-20 21:49:31
365,Irbil,36.19,44.01,51.8,93,40,3.36,IQ,scattered clouds,0.0,0.0,2020-02-20 21:49:32
366,Ugoofaaru,5.67,73.0,81.73,75,20,17.96,MV,few clouds,0.0,0.0,2020-02-20 21:49:32
367,Albacete,38.83,-2.0,46.99,81,0,5.82,ES,clear sky,0.0,0.0,2020-02-20 21:49:33
368,Portales,34.19,-103.33,36.0,69,90,5.82,US,overcast clouds,0.0,0.0,2020-02-20 21:49:11
369,Atar,20.52,-13.05,73.51,12,0,7.07,MR,clear sky,0.0,0.0,2020-02-20 21:49:34
370,Manado,1.49,124.85,73.4,94,40,2.24,ID,light rain,0.69,0.0,2020-02-20 21:44:51
371,Baile Herculane,44.88,22.41,31.15,91,100,3.51,RO,overcast clouds,0.0,0.0,2020-02-20 21:49:35
372,Olga,43.74,135.29,25.77,63,100,8.16,RU,overcast clouds,0.0,0.0,2020-02-20 21:49:35
373,Boa Vista,2.82,-60.67,91.4,36,20,16.11,BR,few clouds,0.0,0.0,2020-02-20 21:49:36
374,La Plata,-34.92,-57.95,72.0,40,40,25.28,AR,scattered clouds,0.0,0.0,2020-02-20 21:47:41
375,Vyshkov,52.48,31.69,37.4,86,97,6.71,RU,overcast clouds,0.0,0.0,2020-02-20 21:49:37
376,Tammisaari,59.97,23.43,37.0,77,100,7.0,FI,overcast clouds,0.0,0.0,2020-02-20 21:49:37
377,Cockburn Town,21.46,-71.14,78.42,78,8,16.55,TC,clear sky,0.0,0.0,2020-02-20 21:46:30
378,Marsh Harbour,26.54,-77.06,75.87,77,0,14.29,BS,clear sky,0.0,0.0,2020-02-20 21:49:38
379,Meulaboh,4.14,96.13,81.23,81,0,9.28,ID,light rain,0.25,0.0,2020-02-20 21:49:39
380,Ust-Barguzin,53.45,108.98,5.34,97,98,1.77,RU,overcast clouds,0.0,0.13,2020-02-20 21:49:39
381,Hauterive,46.09,3.45,53.6,54,40,18.34,FR,scattered clouds,0.0,0.0,2020-02-20 21:49:40
382,Poum,-20.23,164.02,80.64,78,0,12.17,NC,clear sky,0.13,0.0,2020-02-20 21:49:40
383,Santa Maria Da Vitoria,-13.39,-44.19,75.94,82,0,0.83,BR,light rain,0.25,0.0,2020-02-20 21:49:41
384,Rocha,-34.48,-54.33,64.71,44,73,18.03,UY,broken clouds,0.13,0.0,2020-02-20 21:49:26
385,North Ogden,41.31,-111.96,39.99,48,1,6.93,US,clear sky,0.0,0.0,2020-02-20 21:49:42
386,Gaozhou,21.94,110.85,59.5,81,0,3.11,CN,clear sky,0.0,0.0,2020-02-20 21:49:42
387,Wangaratta,-36.37,146.33,61.0,62,100,5.82,AU,overcast clouds,0.0,0.0,2020-02-20 21:49:43
388,Formosa,-26.18,-58.18,86.0,48,0,11.41,AR,clear sky,0.0,0.0,2020-02-20 21:49:43
389,Talaya,61.38,152.75,-29.33,100,34,1.28,RU,scattered clouds,0.0,0.0,2020-02-20 21:49:44
390,Hami,42.8,93.45,21.42,54,0,1.95,CN,clear sky,0.0,0.0,2020-02-20 21:49:44
391,Guerrero Negro,27.98,-114.06,73.98,40,27,8.84,MX,scattered clouds,0.0,0.0,2020-02-20 21:49:45
392,Verkhoyansk,67.54,133.38,-11.43,83,100,3.65,RU,overcast clouds,0.0,0.0,2020-02-20 21:49:46
393,Grindavik,63.84,-22.43,33.8,74,75,11.41,IS,broken clouds,0.0,0.0,2020-02-20 21:49:46
394,Mandali,33.75,45.55,58.08,73,6,2.42,IQ,clear sky,0.0,0.0,2020-02-20 21:49:47
395,Tilichiki,60.47,166.1,-18.85,86,100,7.02,RU,overcast clouds,0.0,0.0,2020-02-20 21:49:47
396,Rawson,-43.3,-65.1,57.87,66,0,26.24,AR,clear sky,0.0,0.0,2020-02-20 21:49:48
397,Orlik,52.52,99.83,-11.96,87,36,4.25,RU,scattered clouds,0.0,0.0,2020-02-20 21:49:48
398,Revda,56.8,59.93,33.8,86,75,8.95,RU,broken clouds,0.0,0.0,2020-02-20 21:49:49
399,Bathsheba,13.22,-59.52,80.6,61,20,19.46,BB,few clouds,0.0,0.0,2020-02-20 21:49:49
400,Lewisporte,49.25,-55.05,8.6,60,75,18.34,CA,broken clouds,0.0,0.0,2020-02-20 21:49:50
401,Novyy Urengoy,66.08,76.63,21.09,96,100,6.82,RU,light snow,0.0,0.5,2020-02-20 21:49:50
402,Butembo,0.15,29.28,65.35,80,15,3.85,CD,few clouds,0.0,0.0,2020-02-20 21:49:51
403,Kaduqli,11.02,29.72,75.99,17,18,14.9,SD,few clouds,0.0,0.0,2020-02-20 21:49:51
404,Erzin,36.96,36.2,57.2,100,75,5.82,TR,light intensity shower rain,1.0,0.0,2020-02-20 21:49:52
405,Buala,-8.14,159.59,81.09,80,100,8.52,SB,overcast clouds,0.0,0.0,2020-02-20 21:49:52
406,Mount Gambier,-37.83,140.77,55.4,87,40,4.7,AU,scattered clouds,0.0,0.0,2020-02-20 21:49:53
407,Bathurst,-33.42,149.58,61.0,86,74,5.12,AU,broken clouds,0.0,0.0,2020-02-20 21:49:53
408,Paamiut,61.99,-49.67,14.5,59,100,6.55,GL,overcast clouds,0.0,0.0,2020-02-20 21:49:54
409,Fandriana,-20.23,47.38,59.18,98,100,3.38,MG,heavy intensity rain,7.69,0.0,2020-02-20 21:49:54
410,Torbay,47.67,-52.73,18.0,61,75,31.09,CA,broken clouds,0.0,0.0,2020-02-20 21:49:55
411,Beringovskiy,63.05,179.32,-16.29,88,0,7.83,RU,clear sky,0.0,0.0,2020-02-20 21:49:55
412,Karla,59.37,24.93,36.0,87,90,9.17,EE,overcast clouds,0.0,0.0,2020-02-20 21:49:56
413,Saint-Pierre,-21.34,55.48,77.0,73,90,8.05,RE,overcast clouds,0.0,0.0,2020-02-20 21:49:56
414,San Pascual,13.8,121.03,69.33,82,44,10.27,PH,scattered clouds,0.0,0.0,2020-02-20 21:49:57
415,Thyboron,56.7,8.21,39.99,94,100,8.99,DK,moderate rain,0.13,0.0,2020-02-20 21:49:58
416,Sabang,5.89,95.32,82.58,77,0,26.96,ID,light rain,0.63,0.0,2020-02-20 21:49:58
417,Marawi,8.0,124.29,70.0,82,0,5.01,PH,clear sky,0.0,0.0,2020-02-20 21:49:59
418,Kokstad,-30.55,29.42,57.96,95,5,0.92,ZA,light rain,0.0,0.0,2020-02-20 21:50:00
419,Deputatskiy,69.3,139.9,-5.26,93,100,3.02,RU,overcast clouds,0.0,0.0,2020-02-20 21:50:01
420,Les Cayes,18.2,-73.75,80.76,71,1,14.58,HT,clear sky,0.0,0.0,2020-02-20 21:50:01
421,Karakulino,56.01,53.71,31.46,95,99,9.31,RU,overcast clouds,0.0,0.0,2020-02-20 21:50:02
422,Bandarbeyla,9.49,50.81,76.91,79,24,11.41,SO,few clouds,0.0,0.0,2020-02-20 21:50:02
423,Yenagoa,4.92,6.26,82.2,77,74,6.35,NG,broken clouds,0.0,0.0,2020-02-20 21:50:03
424,Domna,51.9,113.16,5.0,77,100,3.87,RU,light snow,0.0,0.0,2020-02-20 21:50:03
425,Hualmay,-11.1,-77.61,77.27,67,100,7.54,PE,overcast clouds,0.0,0.0,2020-02-20 21:50:04
426,Kangaatsiaq,68.31,-53.46,7.63,87,100,10.09,GL,light snow,0.0,0.25,2020-02-20 21:50:04
427,Inongo,-1.95,18.27,79.11,67,63,2.91,CD,broken clouds,0.0,0.0,2020-02-20 21:50:05
428,Sulangan,11.14,123.72,78.8,80,27,19.01,PH,light rain,1.06,0.0,2020-02-20 21:50:06
429,Ucluelet,48.93,-125.55,50.0,65,20,6.93,CA,few clouds,0.0,0.0,2020-02-20 21:45:38
430,Bourail,-21.57,165.48,76.89,74,0,3.69,NC,clear sky,0.0,0.0,2020-02-20 21:50:07
431,Palmas De Monte Alto,-14.27,-43.16,77.2,72,100,0.29,BR,light rain,0.94,0.0,2020-02-20 21:50:08
432,Belem De Sao Francisco,-8.75,-38.97,87.71,38,100,7.72,BR,overcast clouds,0.0,0.0,2020-02-20 21:50:08
433,Gambiran,-6.8,111.5,73.15,94,52,5.06,ID,broken clouds,0.0,0.0,2020-02-20 21:50:09
434,Magadi,12.97,77.23,64.4,100,20,6.93,IN,mist,0.0,0.0,2020-02-20 21:50:09
435,Zhuhai,22.28,113.57,63.0,82,0,5.82,CN,clear sky,0.0,0.0,2020-02-20 21:50:10
436,Waddan,29.16,16.14,55.42,56,0,4.45,LY,clear sky,0.0,0.0,2020-02-20 21:50:10
437,Takaka,-40.85,172.8,69.01,89,81,4.0,NZ,light rain,0.69,0.0,2020-02-20 21:46:22
438,Kon Tum,14.35,108.0,54.99,92,0,3.33,VN,clear sky,0.0,0.0,2020-02-20 21:50:11
439,Sarh,9.14,18.39,82.4,32,77,4.61,TD,broken clouds,0.0,0.0,2020-02-20 21:50:12
440,Barranca,-10.75,-77.77,73.4,91,100,9.48,PE,overcast clouds,0.0,0.0,2020-02-20 21:46:04
441,Tafresh,34.69,50.01,31.35,91,0,14.94,IR,clear sky,0.0,0.0,2020-02-20 21:50:13
442,Faya,18.39,42.45,60.8,82,100,4.7,SA,overcast clouds,0.0,0.0,2020-02-20 21:50:13
443,Port-Cartier,50.03,-66.87,-2.0,40,40,13.87,CA,scattered clouds,0.0,0.0,2020-02-20 21:50:14
444,Khandyga,62.67,135.6,-24.25,97,85,3.0,RU,overcast clouds,0.0,0.0,2020-02-20 21:50:14
445,Sept-Iles,50.2,-66.38,-2.0,40,40,13.87,CA,scattered clouds,0.0,0.0,2020-02-20 21:50:15
446,Pobe,6.98,2.66,80.49,78,16,5.86,BJ,few clouds,0.0,0.0,2020-02-20 21:50:16
447,Galveston,29.37,-94.97,50.0,87,90,11.41,US,overcast clouds,0.94,0.0,2020-02-20 21:50:16
448,Atbasar,51.8,68.33,9.41,93,92,5.77,KZ,overcast clouds,0.0,0.0,2020-02-20 21:50:17
449,Gat,31.61,34.76,53.6,87,20,4.7,IL,few clouds,0.0,0.0,2020-02-20 21:50:17
450,Fairbanks,64.84,-147.72,26.01,73,90,9.17,US,overcast clouds,0.0,0.0,2020-02-20 21:50:18
451,Jiaocheng,24.68,116.14,52.68,90,0,0.85,CN,clear sky,0.0,0.0,2020-02-20 21:50:18
452,San Juan,-31.54,-68.54,84.6,19,14,18.9,AR,few clouds,0.0,0.0,2020-02-20 21:50:19
453,Port Macquarie,-31.43,152.92,73.0,68,40,5.82,AU,scattered clouds,0.56,0.0,2020-02-20 21:45:59
454,Santana Do Livramento,-30.89,-55.53,72.9,37,0,10.04,BR,clear sky,0.0,0.0,2020-02-20 21:50:20
455,Xuddur,4.12,43.89,77.02,69,95,13.58,SO,overcast clouds,0.0,0.0,2020-02-20 21:50:20
456,Ligayan,4.65,119.47,81.18,76,5,16.17,PH,light rain,0.0,0.0,2020-02-20 21:50:21
457,Abha,18.22,42.51,60.8,82,100,4.7,SA,overcast clouds,0.0,0.0,2020-02-20 21:50:21
458,Labrea,-7.26,-64.8,89.85,56,57,1.74,BR,broken clouds,2.81,0.0,2020-02-20 21:50:22
459,Pareora,-44.49,171.21,64.99,97,100,11.34,NZ,overcast clouds,0.0,0.0,2020-02-20 21:50:22
460,Umm Kaddadah,13.6,26.69,67.55,22,90,13.33,SD,overcast clouds,0.0,0.0,2020-02-20 21:50:23
461,Laguna De Perlas,12.34,-83.67,84.2,70,40,6.93,NI,scattered clouds,0.0,0.0,2020-02-20 21:50:23
462,Parry Sound,45.35,-80.03,16.0,74,4,7.0,CA,clear sky,0.0,0.0,2020-02-20 21:50:24
463,Lagoa,39.05,-27.98,56.82,61,67,8.55,PT,broken clouds,0.0,0.0,2020-02-20 21:50:24
464,Bako,5.78,36.57,71.2,59,62,5.41,ET,broken clouds,0.0,0.0,2020-02-20 21:50:25
465,Berbera,10.44,45.01,77.92,76,68,3.8,SO,broken clouds,0.0,0.0,2020-02-20 21:50:26
466,Port Hardy,50.7,-127.42,46.4,61,40,12.75,CA,scattered clouds,0.0,0.0,2020-02-20 21:50:26
467,Verkhnevilyuysk,63.45,120.32,8.02,96,100,4.38,RU,light snow,0.0,0.12,2020-02-20 21:50:27
468,Calan,45.73,22.98,31.55,97,100,2.39,RO,light snow,0.0,0.0,2020-02-20 21:50:27
469,Defiance,41.33,-84.45,28.4,42,1,10.29,US,clear sky,0.0,0.0,2020-02-20 21:50:28
470,Hibbing,47.43,-92.94,21.2,48,1,18.34,US,clear sky,0.0,0.0,2020-02-20 21:46:24
471,Sechura,-5.56,-80.82,73.33,88,0,17.29,PE,clear sky,0.0,0.0,2020-02-20 21:50:29
472,Luderitz,-26.65,15.16,71.6,73,0,17.22,NA,clear sky,0.0,0.0,2020-02-20 21:50:29
473,Husavik,66.04,-17.34,30.2,100,90,12.75,IS,light snow,0.0,4.5,2020-02-20 21:50:30
474,Jalu,29.03,21.55,57.02,65,68,9.37,LY,broken clouds,0.0,0.0,2020-02-20 21:50:30
475,Takoradi,4.88,-1.76,79.93,86,100,3.42,GH,overcast clouds,0.0,0.0,2020-02-20 21:50:31
476,Denpasar,-8.65,115.22,75.13,86,78,2.77,ID,broken clouds,0.0,0.0,2020-02-20 21:47:10
477,Kutum,14.2,24.67,61.21,29,0,6.87,SD,clear sky,0.0,0.0,2020-02-20 21:50:32
478,Tessalit,20.2,1.01,73.29,11,79,12.24,ML,broken clouds,0.0,0.0,2020-02-20 21:50:32
479,Turayf,31.67,38.66,46.4,93,0,6.93,SA,clear sky,0.0,0.0,2020-02-20 21:50:33
480,Uglovskoye,51.36,80.19,21.04,87,100,11.54,RU,overcast clouds,0.0,0.0,2020-02-20 21:50:33
481,Sokol,59.46,40.12,31.37,96,98,3.67,RU,overcast clouds,0.0,0.0,2020-02-20 21:50:34
482,Sabha,27.04,14.43,57.43,31,1,8.23,LY,clear sky,0.0,0.0,2020-02-20 21:49:52
483,Honolulu,21.31,-157.86,80.6,54,40,21.92,US,scattered clouds,0.0,0.0,2020-02-20 21:46:00
484,Borovoy,55.43,86.08,24.8,79,100,11.18,RU,light snow,0.0,1.94,2020-02-20 21:50:35
485,Freeport,40.66,-73.58,36.0,37,1,11.41,US,clear sky,0.0,0.0,2020-02-20 21:50:36
486,Ambon,-3.7,128.18,78.8,83,20,4.7,ID,few clouds,0.13,0.0,2020-02-20 21:50:36
487,Vostok,46.49,135.88,1.38,97,100,4.32,RU,overcast clouds,0.0,0.13,2020-02-20 21:50:37
488,Port Moresby,-9.44,147.18,80.6,79,88,12.06,PG,overcast clouds,0.0,0.0,2020-02-20 21:50:37
489,Palauig,15.44,119.9,67.46,56,0,6.85,PH,clear sky,0.0,0.0,2020-02-20 21:50:38
490,Batemans Bay,-35.72,150.18,64.99,72,100,1.99,AU,light rain,0.25,0.0,2020-02-20 21:50:38
491,Mahibadhoo,3.78,72.97,81.84,78,21,18.79,MV,few clouds,0.0,0.0,2020-02-20 21:50:39
492,Sibu,2.3,111.82,77.0,94,75,2.24,MY,broken clouds,0.0,0.0,2020-02-20 21:50:40
493,Beloeil,45.57,-73.2,12.99,46,1,13.87,CA,clear sky,0.0,0.0,2020-02-20 21:50:08
494,Ventspils,57.39,21.56,39.2,93,90,14.99,LV,overcast clouds,0.0,0.0,2020-02-20 21:50:41
495,Port Keats,-14.25,129.55,80.78,83,50,2.64,AU,scattered clouds,0.0,0.0,2020-02-20 21:50:42
496,Pizarro,4.95,-77.37,81.86,81,68,8.99,CO,broken clouds,0.0,0.0,2020-02-20 21:50:42
497,Talaja,21.35,72.05,66.45,51,0,9.44,IN,clear sky,0.0,0.0,2020-02-20 21:50:43
498,Camacha,33.08,-16.33,57.2,82,40,10.29,PT,scattered clouds,1.81,0.0,2020-02-20 21:50:43
499,Nunoa,-14.48,-70.64,54.52,57,100,1.92,PE,light rain,4.19,0.0,2020-02-20 21:50:44
500,Japura,-0.32,102.35,72.0,98,55,1.99,ID,broken clouds,0.0,0.0,2020-02-20 21:50:44
501,Jumla,29.27,82.18,31.64,60,60,4.76,NP,broken clouds,0.0,0.0,2020-02-20 21:50:45
502,Velasco Ibarra,-1.05,-79.62,78.87,88,100,6.51,EC,moderate rain,2.19,0.0,2020-02-20 21:50:45
503,Arica,-18.48,-70.3,77.0,61,100,9.17,CL,overcast clouds,0.0,0.0,2020-02-20 21:50:46
504,Yueyang,29.33,113.09,53.8,75,90,6.6,CN,overcast clouds,0.56,0.0,2020-02-20 21:50:46
505,Kampene,-3.6,26.67,70.9,97,100,1.97,CD,light rain,0.0,0.0,2020-02-20 21:50:47
506,Krasnyy Yar,46.53,48.35,32.0,79,90,4.47,RU,mist,0.0,0.0,2020-02-20 21:50:47
507,Sivaki,52.63,126.75,-9.33,94,0,3.27,RU,clear sky,0.0,0.0,2020-02-20 21:50:48
508,Inuvik,68.35,-133.72,1.4,84,90,4.7,CA,overcast clouds,0.0,0.0,2020-02-20 21:50:48
509,Carutapera,-1.2,-46.02,79.09,82,100,6.31,BR,light rain,0.25,0.0,2020-02-20 21:50:49
510,Lasa,46.62,10.7,35.6,72,0,3.36,IT,clear sky,0.0,0.0,2020-02-20 21:50:49
511,Kawalu,-7.38,108.21,70.05,89,87,3.11,ID,overcast clouds,0.0,0.0,2020-02-20 21:50:50
512,Shiyan,32.65,110.78,44.4,77,99,3.76,CN,overcast clouds,0.0,0.0,2020-02-20 21:50:50
513,Bull Savanna,17.89,-77.59,77.85,71,87,6.42,JM,light rain,0.75,0.0,2020-02-20 21:50:51
514,Magadan,59.57,150.8,-7.62,73,0,5.86,RU,clear sky,0.0,0.0,2020-02-20 21:50:51
515,Nanakuli,21.39,-158.15,80.6,73,75,10.29,US,broken clouds,0.0,0.0,2020-02-20 21:50:52
516,Swellendam,-34.02,20.44,62.6,82,13,2.24,ZA,few clouds,0.0,0.0,2020-02-20 21:50:52
517,Warrington,53.39,-2.58,44.01,70,40,19.46,GB,scattered clouds,0.0,0.0,2020-02-20 21:50:53
518,Flinders,-34.58,150.86,68.0,88,75,3.02,AU,broken clouds,0.38,0.0,2020-02-20 21:50:53
519,Juru,5.31,100.44,80.6,65,20,9.17,MY,few clouds,0.0,0.0,2020-02-20 21:50:54
520,Pangnirtung,66.15,-65.71,-32.8,66,5,2.24,CA,clear sky,0.0,0.0,2020-02-20 21:50:54
521,Vestmannaeyjar,63.44,-20.27,37.67,70,98,3.83,IS,overcast clouds,0.0,0.0,2020-02-20 21:50:55
522,Chateaubelair,13.28,-61.25,82.4,69,40,12.75,VC,scattered clouds,0.0,0.0,2020-02-20 21:50:56
523,Rokytne,51.28,27.21,35.1,92,87,0.72,UA,overcast clouds,0.0,0.0,2020-02-20 21:50:56
524,Manjacaze,-24.71,33.88,76.41,81,16,4.97,MZ,few clouds,0.0,0.0,2020-02-20 21:50:57
525,Vitre,48.12,-1.21,41.0,86,0,6.93,FR,clear sky,0.0,0.0,2020-02-20 21:50:58
526,Olinda,-8.01,-34.86,78.8,88,90,5.82,BR,overcast clouds,0.56,0.0,2020-02-20 21:50:58
527,Nargana,9.44,-78.59,79.88,82,98,19.35,PA,light rain,0.38,0.0,2020-02-20 21:50:59
528,Takab,36.4,47.11,32.16,98,100,1.28,IR,light snow,0.0,0.19,2020-02-20 21:50:59
529,Dengzhou,37.81,120.75,42.3,75,100,15.21,CN,overcast clouds,0.0,0.0,2020-02-20 21:51:00
530,Tuy Hoa,13.08,109.3,75.11,80,55,23.71,VN,light rain,0.31,0.0,2020-02-20 21:51:01
531,Chimbote,-9.09,-78.58,81.55,57,92,11.65,PE,overcast clouds,0.0,0.0,2020-02-20 21:51:01
532,Lata,40.16,-8.33,54.0,87,0,6.93,PT,clear sky,0.0,0.0,2020-02-20 21:51:02
533,Wilmington,34.23,-77.94,42.01,93,90,16.11,US,moderate rain,7.56,0.0,2020-02-20 21:49:17
534,Aksu,41.12,80.26,30.07,46,0,3.06,CN,clear sky,0.0,0.0,2020-02-20 21:51:03
535,Kantunilkin,21.09,-87.45,84.2,66,40,6.93,MX,scattered clouds,0.56,0.0,2020-02-20 21:51:03
536,Tazmalt,36.39,4.4,48.2,87,20,4.7,DZ,few clouds,0.0,0.0,2020-02-20 21:51:04
537,Makat,47.65,53.35,33.42,59,12,6.69,KZ,few clouds,0.0,0.0,2020-02-20 21:51:04
538,Puerto Cabezas,14.04,-83.39,86.0,62,40,9.17,NI,haze,0.0,0.0,2020-02-20 21:51:05
539,Birao,10.28,22.79,75.11,22,97,9.22,CF,overcast clouds,0.0,0.0,2020-02-20 21:51:06
540,Sterling,39.01,-77.43,39.99,47,90,4.7,US,overcast clouds,0.0,0.0,2020-02-20 21:49:02
541,Nantucket,41.28,-70.1,32.0,42,40,9.17,US,scattered clouds,0.0,0.0,2020-02-20 21:51:06
542,Omboue,-1.57,9.26,77.23,95,100,3.96,GA,light rain,0.19,0.0,2020-02-20 21:51:07
543,Kautokeino,69.01,23.04,18.82,89,100,25.68,NO,light snow,0.0,0.44,2020-02-20 21:51:07
544,Price,39.6,-110.81,37.99,16,1,3.36,US,clear sky,0.0,0.0,2020-02-20 21:50:20
545,Kasongo,-4.45,26.67,72.64,93,97,2.53,CD,overcast clouds,0.0,0.0,2020-02-20 21:51:09
546,Guangyuan,32.44,105.82,30.99,67,96,5.46,CN,overcast clouds,0.0,0.0,2020-02-20 21:51:09
547,San Miguelito,9.03,-79.5,89.6,52,40,12.75,PA,scattered clouds,0.0,0.0,2020-02-20 21:51:10
548,Aksarka,66.56,67.8,24.93,95,100,11.12,RU,light snow,0.0,0.5,2020-02-20 21:51:10
549,Krasnoselkup,65.7,82.47,22.48,96,97,4.14,RU,light snow,0.0,0.25,2020-02-20 21:51:11
550,Valparaiso,-33.04,-71.63,64.4,87,90,9.17,CL,mist,0.0,0.0,2020-02-20 21:51:11
551,Opuwo,-18.06,13.84,70.93,32,85,5.91,NA,overcast clouds,0.0,0.0,2020-02-20 21:51:12
552,Luau,-10.71,22.22,70.09,89,88,2.35,AO,overcast clouds,0.0,0.0,2020-02-20 21:51:12
553,San Policarpo,12.18,125.51,77.94,83,91,19.55,PH,moderate rain,3.06,0.0,2020-02-20 21:51:13
554,Taggia,43.85,7.85,50.0,81,20,4.7,IT,few clouds,0.0,0.0,2020-02-20 21:51:14
555,Maamba,-17.37,27.15,69.06,84,0,2.86,ZM,light rain,0.0,0.0,2020-02-20 21:51:14
556,Marrakesh,31.63,-8.01,59.0,67,20,6.93,MA,few clouds,0.0,0.0,2020-02-20 21:50:18
557,Klyuchi,52.27,79.17,19.15,83,100,11.21,RU,overcast clouds,0.0,0.0,2020-02-20 21:51:15
558,Skjervoy,70.03,20.97,32.0,70,100,19.46,NO,overcast clouds,0.0,0.0,2020-02-20 21:49:14
559,Stokmarknes,68.56,14.91,36.0,64,75,16.11,NO,broken clouds,0.0,1.63,2020-02-20 21:51:16
560,Chokwe,-24.53,32.98,79.34,74,13,8.68,MZ,few clouds,0.0,0.0,2020-02-20 21:51:17
561,Avera,33.19,-82.53,42.8,100,90,9.17,US,moderate rain,6.44,0.0,2020-02-20 21:51:17
562,Yantal,56.85,105.25,18.41,94,100,8.86,RU,light snow,0.0,0.25,2020-02-20 21:51:18
563,Kondoa,-4.9,35.78,63.91,94,100,4.97,TZ,light rain,0.63,0.0,2020-02-20 21:51:18
564,Bundaberg,-24.85,152.35,82.0,83,40,5.82,AU,scattered clouds,0.0,0.0,2020-02-20 21:51:19
565,Tongliao,43.61,122.27,26.65,90,99,7.74,CN,overcast clouds,0.0,0.0,2020-02-20 21:51:19
566,Rio Gallegos,-51.62,-69.22,68.0,28,32,9.17,AR,scattered clouds,0.0,0.0,2020-02-20 21:51:20
567,Yamada,39.47,141.95,31.48,69,0,6.78,JP,clear sky,0.0,0.0,2020-02-20 21:51:20
568,Saint-Louis,16.33,-15.0,86.0,23,33,2.24,SN,scattered clouds,0.0,0.0,2020-02-20 21:51:21
569,Kirkenaer,60.46,12.06,41.0,93,75,19.46,NO,light rain,4.56,0.0,2020-02-20 21:51:21
570,Gonaives,19.45,-72.68,80.71,52,9,1.63,HT,clear sky,0.0,0.0,2020-02-20 21:51:22
571,Yala,6.33,101.25,72.5,94,22,4.23,TH,light rain,0.25,0.0,2020-02-20 21:51:22
572,Punta Alta,-38.88,-62.07,66.06,52,0,23.44,AR,clear sky,0.0,0.0,2020-02-20 21:47:25
