City_ID,City,Lat,Lng,Max Temp,Humidity,Cloudiness,Wind Speed,Country,Description,Rain,Snow,Date
0,Qaanaaq,77.48,-69.36,-14.51,58,0,5.61,GL,clear sky,0.0,0.0,2020-02-20 22:46:30
1,Hobart,-42.88,147.33,61.0,44,40,13.87,AU,light rain,0.25,0.0,2020-02-20 22:46:30
2,Albany,42.6,-73.97,26.6,38,1,16.11,US,clear sky,0.0,0.0,2020-02-20 22:45:03
3,Port Alfred,-33.59,26.89,68.0,92,59,6.04,ZA,broken clouds,0.0,0.0,2020-02-20 22:46:31
4,Najran,17.49,44.13,73.4,35,53,4.7,SA,broken clouds,0.0,0.0,2020-02-20 22:46:32
5,New Norfolk,-42.78,147.06,61.0,44,40,13.87,AU,scattered clouds,0.38,0.0,2020-02-20 22:46:32
6,Lebu,-37.62,-73.65,60.78,64,0,5.64,CL,clear sky,0.0,0.0,2020-02-20 22:46:33
7,Vaini,-21.2,-175.2,82.4,69,20,11.41,TO,few clouds,0.0,0.0,2020-02-20 22:46:33
8,Westport,41.14,-73.36,36.0,31,1,9.17,US,clear sky,0.0,0.0,2020-02-20 22:46:28
9,Mogadishu,2.04,45.34,81.36,83,87,16.67,SO,overcast clouds,0.0,0.0,2020-02-20 22:46:34
10,Meridian,43.61,-116.39,46.0,33,1,6.93,US,clear sky,0.0,0.0,2020-02-20 22:43:12
11,Rikitea,-23.12,-134.97,78.98,74,43,10.71,PF,light rain,0.5,0.0,2020-02-20 22:46:36
12,Bengkulu,-3.8,102.27,73.38,87,67,4.45,ID,broken clouds,0.0,0.0,2020-02-20 22:46:36
13,Solnechnyy,50.72,136.63,5.56,85,17,2.33,RU,few clouds,0.0,0.0,2020-02-20 22:46:30
14,Saint-Jean-Port-Joli,47.22,-70.27,-2.0,51,55,1.99,CA,broken clouds,0.0,0.0,2020-02-20 22:46:37
15,Atuona,-9.8,-139.03,81.75,74,41,17.36,PF,scattered clouds,0.0,0.0,2020-02-20 22:46:38
16,Bud,39.45,-86.18,30.2,53,75,12.75,US,broken clouds,0.0,0.0,2020-02-20 22:46:38
17,Tuatapere,-46.13,167.68,61.25,92,88,2.19,NZ,light rain,0.69,0.0,2020-02-20 22:46:39
18,Cabo San Lucas,22.89,-109.91,82.99,39,5,8.05,MX,clear sky,0.0,0.0,2020-02-20 22:42:36
19,Cherskiy,68.75,161.3,-13.83,96,100,7.83,RU,overcast clouds,0.0,0.0,2020-02-20 22:46:40
20,Kuruman,-27.45,23.43,68.0,82,50,3.0,ZA,scattered clouds,0.0,0.0,2020-02-20 22:46:40
21,Teguise,29.06,-13.56,64.4,77,20,14.99,ES,few clouds,0.0,0.0,2020-02-20 22:46:41
22,Lavrentiya,65.58,-171.0,-11.52,82,0,9.1,RU,clear sky,0.0,0.0,2020-02-20 22:46:41
23,Busselton,-33.65,115.33,69.01,35,85,15.14,AU,overcast clouds,0.0,0.0,2020-02-20 22:43:53
24,Yellowknife,62.46,-114.35,33.01,81,20,14.99,CA,few clouds,0.0,0.0,2020-02-20 22:44:27
25,Upernavik,72.79,-56.15,-13.94,99,100,3.13,GL,overcast clouds,0.0,0.0,2020-02-20 22:44:25
26,Bluff,-46.6,168.33,59.45,80,55,17.56,NZ,light rain,0.13,0.0,2020-02-20 22:46:43
27,Ribeira Grande,38.52,-28.7,52.59,70,67,8.61,PT,broken clouds,0.0,0.0,2020-02-20 22:46:44
28,Belmonte,-15.86,-38.88,80.6,83,40,11.41,BR,scattered clouds,0.0,0.0,2020-02-20 22:46:44
29,Ballina,-28.87,153.57,77.0,83,79,6.93,AU,light rain,1.94,0.0,2020-02-20 22:46:45
30,Bredasdorp,-34.53,20.04,62.01,87,13,3.36,ZA,few clouds,0.0,0.0,2020-02-20 22:46:45
31,Pevek,69.7,170.31,-8.27,96,100,9.75,RU,light snow,0.0,0.31,2020-02-20 22:46:46
32,Ushuaia,-54.8,-68.3,53.6,58,75,11.41,AR,broken clouds,0.25,0.0,2020-02-20 22:42:39
33,Bahile,10.0,118.79,78.8,74,75,18.34,PH,broken clouds,0.0,0.0,2020-02-20 22:46:47
34,Novo Aripuana,-5.12,-60.38,76.1,97,100,1.16,BR,light rain,1.44,0.0,2020-02-20 22:46:47
35,Doka,13.52,35.77,68.95,44,14,9.91,SD,few clouds,0.0,0.0,2020-02-20 22:46:47
36,Punta Arenas,-53.15,-70.92,59.0,51,45,13.87,CL,scattered clouds,0.0,0.0,2020-02-20 22:46:48
37,Praia,14.92,-23.51,67.19,87,24,13.04,CV,few clouds,0.0,0.0,2020-02-20 22:46:49
38,Mataura,-46.19,168.86,72.39,63,82,7.65,NZ,light rain,0.31,0.0,2020-02-20 22:46:49
39,Mar Del Plata,-38.0,-57.56,59.0,72,40,17.22,AR,shower rain,0.5,0.0,2020-02-20 22:45:11
40,Butaritari,3.07,172.79,83.82,78,100,12.59,KI,overcast clouds,0.0,0.0,2020-02-20 22:46:50
41,Kapaa,22.08,-159.32,78.8,69,75,20.8,US,broken clouds,0.0,0.0,2020-02-20 22:46:43
42,Katobu,-4.94,122.53,76.5,92,100,1.12,ID,light rain,0.19,0.0,2020-02-20 22:46:51
43,Vyritsa,59.41,30.35,33.8,95,75,4.47,RU,broken clouds,0.0,0.0,2020-02-20 22:46:52
44,Cape Town,-33.93,18.42,66.99,77,0,16.11,ZA,clear sky,0.0,0.0,2020-02-20 22:46:52
45,Tiksi,71.69,128.87,-1.43,86,100,11.63,RU,overcast clouds,0.0,0.0,2020-02-20 22:46:53
46,East London,-33.02,27.91,74.21,78,57,8.3,ZA,broken clouds,0.0,0.0,2020-02-20 22:46:53
47,Bima,-8.47,118.72,77.32,88,99,0.56,ID,overcast clouds,0.0,0.0,2020-02-20 22:46:54
48,Coquimbo,-29.95,-71.34,64.4,77,75,10.29,CL,broken clouds,0.0,0.0,2020-02-20 22:46:55
49,Gizo,-8.1,156.84,81.09,78,49,6.04,SB,light rain,1.81,0.0,2020-02-20 22:46:55
50,Barrow,71.29,-156.79,-7.6,76,90,9.17,US,overcast clouds,0.0,0.0,2020-02-20 22:46:56
51,Katsuura,35.13,140.3,48.99,65,40,9.17,JP,scattered clouds,0.0,0.0,2020-02-20 22:46:56
52,Mahebourg,-20.41,57.7,78.8,74,40,10.29,MU,scattered clouds,0.0,0.0,2020-02-20 22:46:58
53,Haines Junction,60.75,-137.51,22.68,94,94,6.85,CA,light snow,0.0,1.06,2020-02-20 22:46:58
54,Esperance,-33.87,121.9,55.4,87,0,6.93,AU,clear sky,0.0,0.0,2020-02-20 22:46:59
55,Saint-Philippe,-21.36,55.77,77.0,69,20,3.36,RE,few clouds,0.63,0.0,2020-02-20 22:43:16
56,Onega,63.91,38.14,20.86,92,61,9.64,RU,broken clouds,0.0,0.0,2020-02-20 22:47:00
57,Carnarvon,-24.87,113.63,78.8,74,40,9.17,AU,scattered clouds,0.81,0.0,2020-02-20 22:47:01
58,Avarua,-21.21,-159.78,82.4,83,100,6.93,CK,overcast clouds,0.0,0.0,2020-02-20 22:47:01
59,Amahai,-3.33,128.92,83.16,71,98,13.94,ID,overcast clouds,0.0,0.0,2020-02-20 22:47:02
60,Foz Do Iguacu,-25.55,-54.59,87.8,51,0,6.93,BR,clear sky,0.0,0.0,2020-02-20 22:47:02
61,Itarema,-2.92,-39.92,76.08,93,100,3.29,BR,light rain,0.25,0.0,2020-02-20 22:47:03
62,Sao Joao Da Barra,-21.64,-41.05,80.6,74,10,13.87,BR,clear sky,0.0,0.0,2020-02-20 22:44:23
63,Iqaluit,63.75,-68.51,-32.01,59,20,14.99,CA,few clouds,0.0,0.0,2020-02-20 22:47:04
64,Namibe,-15.2,12.15,75.47,73,70,16.11,AO,broken clouds,0.0,0.0,2020-02-20 22:47:05
65,Cornwall,45.02,-74.73,15.8,43,1,8.05,CA,clear sky,0.0,0.0,2020-02-20 22:43:26
66,Kruisfontein,-34.0,24.73,61.59,96,37,1.95,ZA,scattered clouds,0.0,0.0,2020-02-20 22:47:06
67,Hambantota,6.12,81.12,77.0,100,20,10.29,LK,few clouds,0.0,0.0,2020-02-20 22:47:07
68,Pacific Grove,36.62,-121.92,72.0,36,1,4.7,US,clear sky,0.0,0.0,2020-02-20 22:47:07
69,Airai,-8.93,125.41,73.26,80,87,1.36,TL,light rain,0.12,0.0,2020-02-20 22:47:08
70,Nioro,13.35,-15.75,77.07,13,58,3.4,GM,broken clouds,0.0,0.0,2020-02-20 22:47:08
71,Egvekinot,66.32,-179.17,-14.66,81,0,1.43,RU,clear sky,0.0,0.0,2020-02-20 22:47:09
72,Flin Flon,54.77,-101.86,33.8,43,20,14.99,CA,few clouds,0.0,0.0,2020-02-20 22:45:29
73,Kodiak,57.79,-152.41,39.2,86,90,13.71,US,overcast clouds,0.0,0.19,2020-02-20 22:47:10
74,Hermanus,-34.42,19.23,64.0,93,0,1.01,ZA,clear sky,0.0,0.0,2020-02-20 22:47:10
75,Villazon,-22.09,-65.59,53.71,76,100,11.7,BO,overcast clouds,0.0,0.0,2020-02-20 22:47:11
76,Berlevag,70.86,29.09,23.0,85,75,29.97,NO,broken clouds,0.0,0.0,2020-02-20 22:47:11
77,Pierre,44.37,-100.35,42.8,33,1,11.41,US,clear sky,0.0,0.0,2020-02-20 22:44:48
78,Pitimbu,-7.47,-34.81,77.0,94,75,2.24,BR,broken clouds,0.25,0.0,2020-02-20 22:47:12
79,Roma,43.21,-75.46,21.2,57,90,14.99,US,overcast clouds,0.0,0.0,2020-02-20 22:44:30
80,Norman Wells,65.28,-126.83,23.0,85,20,4.7,CA,few clouds,0.0,0.0,2020-02-20 22:47:13
81,Boende,-0.22,20.87,77.16,71,43,1.77,CD,scattered clouds,0.0,0.0,2020-02-20 22:47:14
82,Dikson,73.51,80.55,-1.64,88,45,16.55,RU,scattered clouds,0.0,0.0,2020-02-20 22:47:14
83,Porto Santo,33.07,-16.34,57.2,82,40,6.93,PT,scattered clouds,1.81,0.0,2020-02-20 22:47:15
84,Ponta Delgada,37.73,-25.67,53.6,66,40,8.05,PT,scattered clouds,0.0,0.0,2020-02-20 22:47:17
85,Kununurra,-15.77,128.73,78.8,83,100,4.7,AU,overcast clouds,0.0,0.0,2020-02-20 22:47:18
86,Keuruu,62.27,24.7,30.99,92,90,11.41,FI,overcast clouds,0.0,0.0,2020-02-20 22:47:18
87,Georgetown,5.41,100.34,78.8,83,20,6.93,MY,few clouds,0.0,0.0,2020-02-20 22:46:34
88,Izvestkovyy,48.98,131.55,1.49,79,0,0.98,RU,clear sky,0.0,0.0,2020-02-20 22:47:19
89,Pallasovka,50.05,46.88,29.03,88,80,7.27,RU,broken clouds,0.0,0.0,2020-02-20 22:47:20
90,Partizanskoye,55.5,94.39,24.03,85,79,9.51,RU,broken clouds,0.0,0.0,2020-02-20 22:47:21
91,Tuktoyaktuk,69.45,-133.04,1.4,77,90,9.17,CA,light snow,0.0,0.25,2020-02-20 22:47:21
92,Chokurdakh,70.63,147.92,-14.8,97,91,2.8,RU,overcast clouds,0.0,0.0,2020-02-20 22:47:21
93,Castro,-24.79,-50.01,67.78,75,100,2.68,BR,overcast clouds,0.0,0.0,2020-02-20 22:47:22
94,Zyryanka,65.75,150.85,-17.5,89,74,10.78,RU,broken clouds,0.0,0.0,2020-02-20 22:47:23
95,Griffith,41.53,-87.42,25.0,45,1,4.07,US,clear sky,0.0,0.0,2020-02-20 22:47:23
96,Machico,32.7,-16.77,57.2,71,40,5.82,PT,scattered clouds,0.69,0.0,2020-02-20 22:47:24
97,Belyy Yar,53.6,91.39,30.2,74,100,15.66,RU,light snow,0.0,0.12,2020-02-20 22:47:24
98,Synya,65.37,58.04,6.94,95,74,4.56,RU,broken clouds,0.0,0.0,2020-02-20 22:47:25
99,Cidreira,-30.18,-50.21,73.0,73,34,16.17,BR,scattered clouds,0.0,0.0,2020-02-20 22:47:25
100,Puerto Ayora,-0.74,-90.35,80.6,83,75,10.29,EC,shower rain,0.5,0.0,2020-02-20 22:47:26
101,San Andres,12.58,-81.7,84.2,70,20,12.75,CO,few clouds,0.0,0.0,2020-02-20 22:42:56
102,Kikwit,-5.04,18.82,74.26,78,55,1.88,CD,broken clouds,0.0,0.0,2020-02-20 22:47:27
103,Kloulklubed,7.04,134.26,82.2,77,81,24.61,PW,light rain,0.56,0.0,2020-02-20 22:47:28
104,Kahului,20.89,-156.47,80.6,44,20,21.92,US,few clouds,0.0,0.0,2020-02-20 22:42:50
105,Waingapu,-9.66,120.26,83.73,75,100,15.88,ID,light rain,1.06,0.0,2020-02-20 22:47:29
106,Saint George,37.1,-113.58,59.0,14,1,12.75,US,clear sky,0.0,0.0,2020-02-20 22:46:54
107,Chalus,36.66,51.42,46.4,100,90,0.18,IR,overcast clouds,0.19,0.0,2020-02-20 22:47:30
108,Faanui,-16.48,-151.75,83.3,75,76,17.49,PF,light rain,0.38,0.0,2020-02-20 22:47:30
109,Port Elizabeth,-33.92,25.57,68.0,82,18,12.75,ZA,few clouds,0.0,0.0,2020-02-20 22:47:31
110,Abapo,-18.83,-63.47,69.26,95,95,3.89,BO,light rain,0.38,0.0,2020-02-20 22:47:01
111,Caloundra,-26.8,153.13,84.0,69,40,11.41,AU,scattered clouds,0.88,0.0,2020-02-20 22:47:32
112,Prince Rupert,54.32,-130.32,41.0,75,75,16.11,CA,broken clouds,0.0,0.0,2020-02-20 22:47:33
113,Presidencia Roque Saenz Pena,-26.79,-60.44,74.44,60,40,4.9,AR,scattered clouds,0.0,0.0,2020-02-20 22:47:33
114,Kerman,30.28,57.08,51.8,37,0,4.7,IR,clear sky,0.0,0.0,2020-02-20 22:43:47
115,Matagami,49.75,-77.63,6.8,55,90,13.87,CA,overcast clouds,0.0,0.0,2020-02-20 22:47:31
116,Kamina,-8.74,24.99,66.24,86,90,1.61,CD,overcast clouds,0.0,0.0,2020-02-20 22:47:35
117,Saint-Joseph,-21.37,55.62,77.0,69,20,3.36,RE,few clouds,0.0,0.0,2020-02-20 22:47:36
118,Jamestown,42.1,-79.24,23.0,61,90,10.29,US,light snow,0.0,0.0,2020-02-20 22:44:37
119,Louis Trichardt,-23.04,29.9,69.22,75,24,1.63,ZA,few clouds,0.0,0.0,2020-02-20 22:47:37
120,Isangel,-19.55,169.27,82.4,78,20,6.93,VU,few clouds,0.13,0.0,2020-02-20 22:47:37
121,Ilulissat,69.22,-51.1,-0.4,64,20,11.41,GL,few clouds,0.0,0.0,2020-02-20 22:47:38
122,Dandong,40.13,124.39,36.43,81,100,11.48,CN,overcast clouds,0.0,0.0,2020-02-20 22:47:38
123,Komsomolskiy,40.43,71.72,33.8,69,0,4.7,UZ,mist,0.0,0.0,2020-02-20 22:47:39
124,Alofi,-19.06,-169.92,84.2,89,75,9.17,NU,light intensity drizzle,0.0,0.0,2020-02-20 22:47:39
125,Longyearbyen,78.22,15.64,6.8,60,40,11.41,SJ,scattered clouds,0.0,0.13,2020-02-20 22:46:25
126,High Level,58.52,-117.14,41.0,30,20,13.87,CA,few clouds,0.0,0.0,2020-02-20 22:47:40
127,Ipilan,8.84,117.9,77.7,75,44,12.19,PH,light rain,0.31,0.0,2020-02-20 22:47:41
128,Sompeta,18.93,84.6,65.66,74,0,1.74,IN,clear sky,0.0,0.0,2020-02-20 22:47:41
129,Havoysund,71.0,24.66,26.6,68,83,27.51,NO,broken clouds,0.0,0.0,2020-02-20 22:47:42
130,Plettenberg Bay,-34.05,23.37,65.19,89,33,1.23,ZA,scattered clouds,0.0,0.0,2020-02-20 22:47:42
131,Sao Filipe,14.9,-24.5,69.8,76,8,15.28,CV,clear sky,0.0,0.0,2020-02-20 22:47:43
132,Neiafu,-18.65,-173.98,82.4,74,40,10.29,TO,scattered clouds,0.0,0.0,2020-02-20 22:47:43
133,Thompson,55.74,-97.86,30.2,54,90,11.41,CA,overcast clouds,0.0,0.0,2020-02-20 22:45:32
134,Tasiilaq,65.61,-37.64,23.0,67,100,9.17,GL,light snow,0.0,0.13,2020-02-20 22:47:45
135,Mount Isa,-20.73,139.5,82.4,21,0,5.82,AU,clear sky,0.0,0.0,2020-02-20 22:47:45
136,Hasaki,35.73,140.83,41.0,80,75,8.05,JP,broken clouds,0.0,0.0,2020-02-20 22:45:58
137,Khatanga,71.97,102.5,3.07,95,97,8.77,RU,light snow,0.0,0.13,2020-02-20 22:47:46
138,Kaitangata,-46.28,169.85,69.01,72,96,1.99,NZ,overcast clouds,0.0,0.0,2020-02-20 22:47:47
139,Salalah,17.02,54.09,77.0,69,75,4.7,OM,broken clouds,0.0,0.0,2020-02-20 22:47:47
140,Amapa,1.0,-52.0,73.09,94,100,3.42,BR,overcast clouds,0.0,0.0,2020-02-20 22:47:48
141,Bethel,41.37,-73.41,35.6,58,20,9.17,US,few clouds,0.0,0.0,2020-02-20 22:47:48
142,Okhotsk,59.38,143.3,-12.51,76,0,7.74,RU,clear sky,0.0,0.0,2020-02-20 22:47:49
143,Saskylakh,71.92,114.08,-19.17,99,90,3.09,RU,overcast clouds,0.0,0.0,2020-02-20 22:47:50
144,Keflavik,64.0,-22.56,32.0,71,75,14.99,IS,broken clouds,0.0,0.0,2020-02-20 22:47:50
145,Villaviciosa,43.48,-5.44,55.0,93,90,4.7,ES,overcast clouds,0.0,0.0,2020-02-20 22:47:51
146,Juneau,58.3,-134.42,35.6,95,90,33.33,US,moderate rain,0.0,7.25,2020-02-20 22:45:17
147,Villa Bruzual,9.33,-69.12,81.72,61,92,9.55,VE,overcast clouds,0.0,0.0,2020-02-20 22:47:52
148,Mackenzie,55.3,-123.17,35.6,51,1,13.87,CA,clear sky,0.0,0.19,2020-02-20 22:47:53
149,Kalevala,65.2,31.17,18.0,85,87,8.12,RU,overcast clouds,0.0,0.0,2020-02-20 22:47:53
150,Bilma,18.69,12.92,63.61,23,12,8.81,NE,few clouds,0.0,0.0,2020-02-20 22:47:54
151,Santo Amaro Da Imperatriz,-27.69,-48.78,80.6,83,75,10.29,BR,broken clouds,0.37,0.0,2020-02-20 22:47:54
152,Petropavlovsk-Kamchatskiy,53.05,158.65,1.4,54,100,11.18,RU,overcast clouds,0.0,0.0,2020-02-20 22:43:29
153,Erie,42.77,-78.67,25.0,49,75,12.75,US,broken clouds,0.0,0.13,2020-02-20 22:44:38
154,Molochnoye,59.29,39.68,30.96,97,94,3.6,RU,overcast clouds,0.0,0.0,2020-02-20 22:47:56
155,Maceio,-9.67,-35.74,75.2,94,75,6.93,BR,light rain,0.0,0.0,2020-02-20 22:46:07
156,Aklavik,68.22,-135.01,3.2,71,75,2.24,CA,broken clouds,0.0,0.0,2020-02-20 22:47:57
157,Constitucion,-35.33,-72.42,57.15,57,0,2.82,CL,clear sky,0.0,0.0,2020-02-20 22:47:57
158,Nyurba,63.28,118.33,6.03,96,100,4.21,RU,overcast clouds,0.0,0.0,2020-02-20 22:47:58
159,Udachnyy,66.42,112.4,-0.4,84,13,6.71,RU,few clouds,0.0,0.0,2020-02-20 22:47:58
160,Vardo,70.37,31.11,23.0,67,75,28.86,NO,broken clouds,0.0,0.0,2020-02-20 22:47:59
161,Hearst,49.68,-83.67,14.63,74,100,12.84,CA,overcast clouds,0.0,0.0,2020-02-20 22:48:00
162,San Patricio,19.22,-104.7,84.2,74,20,11.41,MX,few clouds,0.0,0.0,2020-02-20 22:48:00
163,Porto Velho,-8.76,-63.9,82.4,83,75,4.76,BR,shower rain,3.94,0.0,2020-02-20 22:46:06
164,Hermiston,45.84,-119.29,51.01,39,1,5.82,US,clear sky,0.0,0.0,2020-02-20 22:48:01
165,Narsaq,60.92,-46.05,32.0,56,100,14.99,GL,overcast clouds,0.0,0.0,2020-02-20 22:48:02
166,Yar-Sale,66.83,70.83,25.09,96,100,7.29,RU,light snow,0.0,1.06,2020-02-20 22:48:02
167,Tura,25.52,90.22,63.34,57,58,3.0,IN,broken clouds,0.0,0.0,2020-02-20 22:48:03
168,Eyl,7.98,49.82,77.16,82,45,14.72,SO,scattered clouds,0.0,0.0,2020-02-20 22:48:03
169,Bilibino,68.05,166.44,-20.7,95,100,1.81,RU,overcast clouds,0.0,0.0,2020-02-20 22:48:04
170,Port Shepstone,-30.74,30.45,69.22,92,4,6.38,ZA,clear sky,0.0,0.0,2020-02-20 22:48:05
171,Ancud,-41.87,-73.82,68.0,42,0,5.82,CL,clear sky,0.0,0.0,2020-02-20 22:48:05
172,Sosnovo-Ozerskoye,52.52,111.54,-4.38,95,64,5.73,RU,broken clouds,0.0,0.0,2020-02-20 22:46:28
173,Bertoua,4.58,13.68,72.25,35,9,2.68,CM,clear sky,0.0,0.0,2020-02-20 22:48:07
174,Victoria,22.29,114.16,62.6,72,0,10.29,HK,clear sky,0.0,0.0,2020-02-20 22:47:41
175,Chuy,-33.7,-53.46,60.98,58,5,11.79,UY,clear sky,0.0,0.0,2020-02-20 22:48:08
176,Saint Anthony,45.02,-93.22,15.8,33,1,6.93,US,clear sky,0.0,0.0,2020-02-20 22:48:08
177,Talnakh,69.49,88.4,14.0,92,90,6.71,RU,mist,0.0,0.0,2020-02-20 22:46:52
178,Jaguariaiva,-24.25,-49.71,68.07,97,100,2.37,BR,overcast clouds,0.0,0.0,2020-02-20 22:48:09
179,Niksar,40.59,36.95,32.85,70,62,9.44,TR,broken clouds,0.0,0.0,2020-02-20 22:48:10
180,Dicabisagan,17.08,122.42,73.63,84,31,15.86,PH,light rain,1.69,0.0,2020-02-20 22:48:10
181,Shizuishan,39.23,106.77,27.48,49,82,14.56,CN,broken clouds,0.0,0.0,2020-02-20 22:48:11
182,Hilo,19.73,-155.09,78.8,54,75,5.82,US,broken clouds,0.25,0.0,2020-02-20 22:43:16
183,Kudahuvadhoo,2.67,72.89,83.39,76,25,15.32,MV,light rain,0.19,0.0,2020-02-20 22:48:13
184,Charlestown,-32.95,151.67,77.0,57,40,6.93,AU,scattered clouds,0.0,0.0,2020-02-20 22:43:15
185,Roswell,34.02,-84.36,42.01,93,90,3.36,US,light rain,1.19,0.0,2020-02-20 22:47:20
186,Hay River,60.82,-115.8,39.2,41,20,14.99,CA,few clouds,0.0,0.0,2020-02-20 22:48:14
187,Karachi,24.91,67.08,69.8,28,0,13.87,PK,clear sky,0.0,0.0,2020-02-20 22:48:15
188,Yaan,7.38,8.57,81.28,16,2,3.24,NG,clear sky,0.0,0.0,2020-02-20 22:48:15
189,Arraial Do Cabo,-22.97,-42.03,78.8,83,0,10.29,BR,clear sky,0.0,0.0,2020-02-20 22:44:23
190,Port Lincoln,-34.73,135.87,62.4,65,99,12.93,AU,overcast clouds,0.0,0.0,2020-02-20 22:48:16
191,Karaton,-6.34,106.1,77.0,94,40,3.36,ID,scattered clouds,0.0,0.0,2020-02-20 22:48:17
192,Novikovo,51.15,37.89,29.12,82,43,1.81,RU,scattered clouds,0.0,0.0,2020-02-20 22:48:17
193,Port Augusta,-32.5,137.77,64.4,63,27,12.75,AU,scattered clouds,0.0,0.0,2020-02-20 22:48:18
194,Tabou,4.42,-7.35,77.68,91,35,2.68,CI,scattered clouds,0.0,0.0,2020-02-20 22:48:18
195,Okha,53.57,142.95,0.88,88,81,9.98,RU,broken clouds,0.0,0.0,2020-02-20 22:48:19
196,Asau,46.43,26.4,36.0,83,90,2.24,RO,overcast clouds,0.0,0.0,2020-02-20 22:48:19
197,Vung Tau,10.35,107.08,73.13,68,0,5.21,VN,clear sky,0.0,0.0,2020-02-20 22:48:20
198,Alagoa Grande,-7.16,-35.63,71.6,94,75,6.93,BR,broken clouds,1.56,0.0,2020-02-20 22:48:21
199,Awbari,26.59,12.78,53.69,36,0,7.99,LY,clear sky,0.0,0.0,2020-02-20 22:48:21
200,Nikolskoye,59.7,30.79,33.8,96,75,4.47,RU,broken clouds,0.0,0.0,2020-02-20 22:48:22
201,Farafangana,-22.82,47.83,79.36,80,68,21.12,MG,light rain,2.31,0.0,2020-02-20 22:48:23
202,Amarante Do Maranhao,-5.57,-46.74,70.27,99,100,2.86,BR,moderate rain,4.19,0.0,2020-02-20 22:48:23
203,Asmara,15.33,38.93,60.08,86,70,2.44,ER,broken clouds,0.0,0.0,2020-02-20 22:48:24
204,Sayyan,15.17,44.32,54.41,48,31,2.42,YE,scattered clouds,0.0,0.0,2020-02-20 22:48:24
205,Dunedin,-45.87,170.5,67.93,61,99,11.63,NZ,overcast clouds,0.0,0.0,2020-02-20 22:48:25
206,Cabedelo,-6.98,-34.83,77.0,94,75,2.24,BR,broken clouds,1.13,0.0,2020-02-20 22:48:25
207,Rio Grande,-32.03,-52.1,71.6,60,75,16.11,BR,broken clouds,0.0,0.0,2020-02-20 22:48:26
208,Snasa,64.25,12.38,29.07,98,100,8.79,NO,snow,0.0,4.44,2020-02-20 22:48:26
209,Sangar,63.92,127.47,-11.85,95,100,14.45,RU,light snow,0.0,0.63,2020-02-20 22:48:27
210,Jacareacanga,-6.22,-57.75,75.36,96,100,0.72,BR,light rain,1.25,0.0,2020-02-20 22:48:27
211,Lorengau,-2.02,147.27,83.52,75,78,11.03,PG,light rain,0.38,0.0,2020-02-20 22:48:28
212,Ostrovnoy,68.05,39.51,15.03,82,97,25.88,RU,overcast clouds,0.0,0.0,2020-02-20 22:48:28
213,Kalmunai,7.42,81.82,81.45,81,5,17.34,LK,light rain,1.06,0.0,2020-02-20 22:48:29
214,Ekhabi,53.51,142.97,0.88,88,81,9.98,RU,broken clouds,0.0,0.0,2020-02-20 22:48:29
215,Langsa,4.47,97.97,72.77,86,6,3.15,ID,clear sky,0.0,0.0,2020-02-20 22:45:20
216,Nove Mesto Nad Metuji,50.34,16.15,45.0,65,90,9.17,CZ,overcast clouds,0.0,0.0,2020-02-20 22:48:30
217,Shenkursk,62.11,42.9,18.48,95,2,0.56,RU,clear sky,0.0,0.0,2020-02-20 22:48:31
218,Mangla,31.89,72.38,55.09,66,3,7.54,PK,clear sky,0.0,0.0,2020-02-20 22:48:31
219,Overyata,58.09,55.87,33.8,96,90,8.95,RU,light snow,0.0,0.31,2020-02-20 22:48:32
220,Vila Franca Do Campo,37.72,-25.43,53.6,66,40,8.05,PT,scattered clouds,0.0,0.0,2020-02-20 22:48:32
221,Pisco,-13.7,-76.22,72.0,30,75,19.46,PE,broken clouds,0.0,0.0,2020-02-20 22:48:33
222,Clyde River,70.47,-68.59,-14.8,75,40,13.87,CA,scattered clouds,0.0,0.0,2020-02-20 22:48:33
223,Summerside,46.4,-63.79,6.8,46,20,4.7,CA,few clouds,0.0,0.0,2020-02-20 22:44:45
224,Buritis,-15.62,-46.42,70.07,89,99,3.11,BR,light rain,1.63,0.0,2020-02-20 22:48:34
225,Toamasina,-18.17,49.38,78.8,94,40,5.21,MG,shower rain,1.75,0.0,2020-02-20 22:48:35
226,Saravan,39.72,45.65,35.6,93,90,4.7,AM,mist,0.0,0.0,2020-02-20 22:48:36
227,Troitskoye,52.98,84.68,21.79,86,88,7.2,RU,overcast clouds,0.0,0.0,2020-02-20 22:48:36
228,Almaznyy,48.04,40.05,33.8,100,75,11.18,RU,broken clouds,0.0,0.38,2020-02-20 22:48:37
229,Ahipara,-35.17,173.17,71.1,79,88,13.56,NZ,overcast clouds,0.0,0.0,2020-02-20 22:48:37
230,Roald,62.58,6.13,41.0,69,50,20.8,NO,scattered clouds,0.0,0.0,2020-02-20 22:48:38
231,Broome,42.25,-75.83,21.0,62,90,5.82,US,overcast clouds,0.0,0.0,2020-02-20 22:48:38
232,Buraydah,26.33,43.98,55.4,66,0,5.82,SA,clear sky,0.0,0.0,2020-02-20 22:48:40
233,Nanortalik,60.14,-45.24,25.14,68,100,5.97,GL,overcast clouds,0.0,0.0,2020-02-20 22:47:35
234,Ixtapa,20.7,-105.2,78.01,83,40,11.41,MX,scattered clouds,0.0,0.0,2020-02-20 22:45:24
235,Mocuba,-16.84,36.99,73.72,97,11,2.13,MZ,few clouds,0.0,0.0,2020-02-20 22:48:41
236,Sinnamary,5.38,-52.95,78.17,74,64,13.8,GF,broken clouds,0.0,0.0,2020-02-20 22:48:42
237,Ornskoldsvik,63.29,18.72,35.6,97,100,19.46,SE,snow,0.0,2.5,2020-02-20 22:48:42
238,Te Anau,-45.42,167.72,57.81,84,80,8.97,NZ,light rain,0.38,0.0,2020-02-20 22:48:43
239,Hun,29.13,15.95,53.15,59,0,7.02,LY,clear sky,0.0,0.0,2020-02-20 22:48:43
240,Progreso,21.28,-89.67,89.6,55,40,11.41,MX,scattered clouds,0.0,0.0,2020-02-20 22:48:44
241,Shenjiamen,29.96,122.3,53.49,83,0,10.04,CN,clear sky,0.0,0.0,2020-02-20 22:48:44
242,Zhezkazgan,47.8,67.71,14.54,88,100,8.14,KZ,overcast clouds,0.0,0.0,2020-02-20 22:48:45
243,Sapele,5.89,5.68,80.17,83,0,2.37,NG,clear sky,0.0,0.0,2020-02-20 22:48:45
244,Simiti,7.96,-73.94,83.86,56,68,3.71,CO,broken clouds,0.0,0.0,2020-02-20 22:48:46
245,Cayenne,4.93,-52.33,78.8,74,67,3.36,GF,broken clouds,0.0,0.0,2020-02-20 22:48:46
246,Kalispell,48.2,-114.31,37.99,43,1,8.05,US,clear sky,0.0,0.0,2020-02-20 22:45:53
247,Lompoc,34.64,-120.46,75.99,25,1,4.7,US,clear sky,0.0,0.0,2020-02-20 22:45:38
248,Nerchinskiy Zavod,51.31,119.61,3.31,87,100,3.33,RU,overcast clouds,0.0,0.0,2020-02-20 22:48:48
249,Severo-Kurilsk,50.68,156.12,18.63,87,100,18.34,RU,light snow,0.0,1.25,2020-02-20 22:48:48
250,Caceres,39.52,-6.37,46.99,84,0,5.99,ES,clear sky,0.0,0.0,2020-02-20 22:48:49
251,Vestmanna,62.16,-7.17,41.0,75,100,31.09,FO,light snow,0.0,0.56,2020-02-20 22:48:49
252,Barra Patuca,15.8,-84.28,80.33,79,49,11.05,HN,light rain,0.31,0.0,2020-02-20 22:48:50
253,Tual,-5.67,132.75,81.36,80,100,14.9,ID,moderate rain,5.06,0.0,2020-02-20 22:48:50
254,Bambous Virieux,-20.34,57.76,78.8,74,40,10.29,MU,scattered clouds,0.0,0.0,2020-02-20 22:48:51
255,Biak,-0.91,122.88,81.93,73,67,8.97,ID,light rain,0.69,0.0,2020-02-20 22:48:51
256,Thinadhoo,0.53,72.93,83.5,78,37,15.79,MV,light rain,0.38,0.0,2020-02-20 22:48:52
257,Half Moon Bay,37.46,-122.43,71.01,51,75,3.36,US,broken clouds,0.0,0.0,2020-02-20 22:48:52
258,Vanimo,-2.67,141.3,81.18,80,96,12.17,PG,light rain,1.81,0.0,2020-02-20 22:48:53
259,Portland,45.52,-122.68,57.99,37,40,13.87,US,scattered clouds,0.0,0.0,2020-02-20 22:46:09
260,Havelock,34.88,-76.9,41.0,93,90,20.8,US,moderate rain,7.31,0.0,2020-02-20 22:48:54
261,Mawlaik,23.63,94.42,56.23,68,0,1.52,MM,clear sky,0.0,0.0,2020-02-20 22:48:55
262,Mehamn,71.04,27.85,26.6,85,75,29.97,NO,broken clouds,0.0,0.0,2020-02-20 22:48:55
263,Port-Gentil,-0.72,8.78,84.2,83,40,8.05,GA,scattered clouds,0.12,0.0,2020-02-20 22:48:56
264,Funtua,11.52,7.31,68.25,17,0,9.33,NG,clear sky,0.0,0.0,2020-02-20 22:48:56
265,Vieste,41.88,16.18,39.2,93,5,9.17,IT,clear sky,0.0,0.0,2020-02-20 22:48:57
266,Cecava,44.69,17.77,33.8,74,39,9.17,BA,scattered clouds,0.0,0.0,2020-02-20 22:48:57
267,Namatanai,-3.67,152.43,84.52,69,31,8.01,PG,scattered clouds,0.0,0.0,2020-02-20 22:48:58
268,Bray,53.2,-6.1,41.0,86,20,18.34,IE,few clouds,0.0,0.0,2020-02-20 22:45:00
269,Yaypan,40.38,70.82,38.7,49,0,1.61,UZ,clear sky,0.0,0.0,2020-02-20 22:48:59
270,Wladyslawowo,54.79,18.4,41.0,64,40,16.11,PL,scattered clouds,0.0,0.0,2020-02-20 22:48:59
271,Green River,41.53,-109.47,21.2,53,1,3.36,US,clear sky,0.0,0.0,2020-02-20 22:49:00
272,Warsaw,52.23,21.01,37.0,92,39,6.93,PL,scattered clouds,0.0,0.0,2020-02-20 22:48:31
273,Fortuna,40.6,-124.16,64.99,71,1,11.41,US,clear sky,0.0,0.0,2020-02-20 22:49:01
274,Mareeba,-17.0,145.43,88.0,79,40,11.41,AU,light intensity shower rain,0.0,0.0,2020-02-20 22:49:01
275,Selma,36.57,-119.61,75.99,24,1,1.23,US,clear sky,0.0,0.0,2020-02-20 22:49:02
276,Cervo,43.67,-7.41,52.0,1,100,5.57,ES,overcast clouds,0.0,0.0,2020-02-20 22:49:03
277,Ayni,39.39,68.54,22.19,7,0,9.86,TJ,clear sky,0.0,0.0,2020-02-20 22:49:03
278,Geraldton,-28.77,114.6,73.4,83,99,4.7,AU,light rain,0.19,0.0,2020-02-20 22:49:04
279,Varadero,23.15,-81.25,84.2,66,40,10.29,CU,scattered clouds,0.0,0.0,2020-02-20 22:49:04
280,Chunskiy,56.08,99.63,14.85,90,89,4.9,RU,overcast clouds,0.0,0.0,2020-02-20 22:49:05
281,Muroto,33.28,134.15,37.4,61,20,10.29,JP,few clouds,0.0,0.0,2020-02-20 22:49:05
282,Mitsamiouli,-11.38,43.28,84.72,72,94,7.09,KM,overcast clouds,0.0,0.0,2020-02-20 22:48:16
283,Leningradskiy,69.38,178.42,-6.93,92,100,23.24,RU,light snow,0.0,0.13,2020-02-20 22:49:06
284,Manbij,36.53,37.95,41.0,80,20,11.12,SY,few clouds,0.0,0.0,2020-02-20 22:49:07
285,Sioux Lookout,50.1,-91.92,23.0,57,5,12.75,CA,clear sky,0.0,0.0,2020-02-20 22:49:07
286,Mahanoro,-19.9,48.8,79.43,80,100,7.27,MG,moderate rain,3.06,0.0,2020-02-20 22:49:08
287,Palmer,42.16,-72.33,30.99,36,40,8.05,US,scattered clouds,0.0,0.0,2020-02-20 22:45:45
288,Souillac,-20.52,57.52,78.8,74,40,10.29,MU,scattered clouds,0.0,0.0,2020-02-20 22:49:09
289,Hillsborough,37.57,-122.38,71.01,32,1,5.82,US,clear sky,0.0,0.0,2020-02-20 22:49:10
290,Roblin,51.23,-101.36,19.09,84,0,10.96,CA,clear sky,0.0,0.0,2020-02-20 22:49:10
291,Semme,46.2,1.5,46.4,100,90,6.93,FR,light intensity drizzle,0.31,0.0,2020-02-20 22:49:11
292,Vao,-22.67,167.48,79.79,71,1,7.47,NC,clear sky,0.0,0.0,2020-02-20 22:49:11
293,Sitka,57.05,-135.33,37.4,86,90,25.28,US,moderate rain,18.06,0.0,2020-02-20 22:49:12
294,Mnogovershinnyy,53.94,139.92,3.09,85,14,7.29,RU,few clouds,0.0,0.0,2020-02-20 22:47:48
295,Banes,20.96,-75.72,84.2,58,20,14.99,CU,few clouds,0.0,0.0,2020-02-20 22:48:56
296,Porto Novo,6.5,2.6,86.0,79,20,10.29,BJ,few clouds,0.0,0.0,2020-02-20 22:49:13
297,Nanton,50.35,-113.77,35.19,50,0,6.62,CA,clear sky,0.0,0.0,2020-02-20 22:49:14
298,Provideniya,64.38,-173.3,-4.0,70,0,4.47,RU,clear sky,0.0,0.0,2020-02-20 22:49:14
299,Dhidhdhoo,6.88,73.1,81.99,67,0,9.4,MV,clear sky,0.0,0.0,2020-02-20 22:49:15
300,Dingle,11.0,122.67,75.51,85,48,14.88,PH,light rain,1.25,0.0,2020-02-20 22:49:15
301,Daru,-9.08,143.21,84.47,68,100,10.04,PG,overcast clouds,0.0,0.0,2020-02-20 22:48:04
302,Kamaishi,39.27,141.88,39.02,57,3,1.79,JP,clear sky,0.0,0.0,2020-02-20 22:49:16
303,Codrington,-38.27,141.97,58.98,78,32,16.53,AU,light rain,0.31,0.0,2020-02-20 22:49:17
304,Klaksvik,62.23,-6.59,41.0,75,94,31.09,FO,light rain,0.37,0.0,2020-02-20 22:49:17
305,Winnemucca,40.97,-117.74,50.0,18,1,12.75,US,clear sky,0.0,0.0,2020-02-20 22:49:18
306,Manicore,-5.81,-61.3,76.98,87,100,1.54,BR,moderate rain,3.25,0.0,2020-02-20 22:49:18
307,Cassilandia,-19.11,-51.73,75.7,86,99,2.59,BR,overcast clouds,0.0,0.0,2020-02-20 22:49:18
308,Loubomo,-4.2,12.67,73.56,89,36,2.17,CG,scattered clouds,0.0,0.0,2020-02-20 22:49:19
309,Shimoda,34.67,138.95,46.99,81,58,1.01,JP,broken clouds,0.0,0.0,2020-02-20 22:49:19
310,Kidal,18.44,1.41,70.23,13,85,11.43,ML,overcast clouds,0.0,0.0,2020-02-20 22:49:20
311,Kovdor,67.57,30.48,13.15,79,86,13.22,RU,overcast clouds,0.0,0.0,2020-02-20 22:49:20
312,Raudeberg,61.99,5.14,39.2,80,40,25.28,NO,light rain,1.31,0.0,2020-02-20 22:49:21
313,Hithadhoo,-0.6,73.08,83.57,78,14,11.74,MV,few clouds,0.0,0.0,2020-02-20 22:49:22
314,Belaya Gora,68.53,146.42,-10.14,90,89,5.88,RU,overcast clouds,0.0,0.0,2020-02-20 22:49:22
315,Ponta Do Sol,32.67,-17.1,57.2,71,40,5.82,PT,scattered clouds,0.69,0.0,2020-02-20 22:49:23
316,Panama City,8.99,-79.52,87.8,62,40,17.22,PA,scattered clouds,0.0,0.0,2020-02-20 22:47:29
317,Lira,2.23,32.91,76.3,51,78,0.92,UG,broken clouds,0.0,0.0,2020-02-20 22:49:24
318,Port Blair,11.67,92.75,81.16,76,50,18.43,IN,scattered clouds,0.0,0.0,2020-02-20 22:49:24
319,Colquechaca,-18.67,-66.02,47.62,88,100,4.83,BO,light rain,0.63,0.0,2020-02-20 22:49:25
320,Beloha,-25.17,45.05,76.69,65,26,7.43,MG,scattered clouds,0.0,0.0,2020-02-20 22:49:25
321,Popondetta,-8.75,148.25,81.37,75,100,3.09,PG,light rain,0.31,0.0,2020-02-20 22:49:26
322,Valle De Guadalupe,21.0,-102.62,79.52,17,0,6.76,MX,clear sky,0.0,0.0,2020-02-20 22:46:03
323,Zabaykalsk,49.63,117.32,6.44,95,100,8.28,RU,light snow,0.0,0.31,2020-02-20 22:49:27
324,Balakhninskiy,58.01,114.28,2.8,97,100,3.06,RU,light snow,0.0,0.56,2020-02-20 22:49:27
325,Indiana,40.0,-86.25,28.99,58,90,10.29,US,overcast clouds,0.0,0.0,2020-02-20 22:49:28
326,Vila Velha,-20.33,-40.29,81.0,83,40,14.99,BR,scattered clouds,0.19,0.0,2020-02-20 22:47:12
327,Nizhniy Ufaley,55.92,59.98,25.83,93,96,8.05,RU,light snow,0.0,0.13,2020-02-20 22:49:29
328,Virginia Beach,36.85,-75.98,36.0,91,90,10.29,US,light rain,3.25,0.0,2020-02-20 22:49:17
329,Maragogi,-9.01,-35.22,80.44,81,100,9.75,BR,light rain,0.19,0.0,2020-02-20 22:49:30
330,Vrede,-27.43,29.17,60.15,94,3,9.42,ZA,clear sky,0.0,0.0,2020-02-20 22:49:30
331,Korem,12.51,39.52,57.24,90,96,2.68,ET,overcast clouds,0.0,0.0,2020-02-20 22:49:31
332,Kingsport,36.55,-82.56,36.0,93,90,4.7,US,light rain,0.0,0.56,2020-02-20 22:44:58
333,San Quintin,30.48,-115.95,66.51,60,98,9.8,MX,overcast clouds,0.0,0.0,2020-02-20 22:46:04
334,Baykit,61.67,96.37,13.17,96,96,3.33,RU,overcast clouds,0.0,0.0,2020-02-20 22:49:32
335,Prince Albert,53.2,-105.77,26.6,58,20,5.82,CA,few clouds,0.0,0.0,2020-02-20 22:48:50
336,Las Vegas,36.17,-115.14,64.99,11,1,6.93,US,clear sky,0.0,0.0,2020-02-20 22:45:02
337,Hare Bay,48.85,-54.01,6.8,50,40,27.51,CA,scattered clouds,0.0,0.0,2020-02-20 22:49:34
338,Indianola,41.36,-93.56,25.0,38,1,5.82,US,clear sky,0.0,0.0,2020-02-20 22:49:11
339,Coihaique,-45.58,-72.07,71.6,37,0,5.82,CL,clear sky,0.0,0.0,2020-02-20 22:49:35
340,Sistranda,63.73,8.83,37.99,93,75,17.22,NO,shower rain,0.0,0.0,2020-02-20 22:49:36
341,Susangerd,31.56,48.18,57.2,93,0,4.7,IR,mist,0.0,0.0,2020-02-20 22:47:04
342,Shaowu,27.34,117.48,50.27,80,82,3.47,CN,broken clouds,0.0,0.0,2020-02-20 22:49:37
343,Morwell,-38.23,146.4,61.0,80,48,4.0,AU,light rain,0.13,0.0,2020-02-20 22:49:37
344,Bom Sucesso,-21.03,-44.76,68.27,93,66,3.2,BR,light rain,2.63,0.0,2020-02-20 22:49:38
345,Burdur,37.72,30.29,44.6,93,75,9.17,TR,light intensity shower rain,0.75,0.0,2020-02-20 22:49:38
346,Kuala Terengganu,5.33,103.14,80.6,78,40,10.29,MY,scattered clouds,0.88,0.0,2020-02-20 22:49:39
347,Akyab,20.15,92.9,63.61,74,0,5.82,MM,clear sky,0.0,0.0,2020-02-20 22:49:39
348,Edirne,41.68,26.56,39.99,86,98,1.99,TR,overcast clouds,0.0,0.0,2020-02-20 22:46:32
349,Caimito,8.81,-75.41,91.4,55,85,13.87,CO,overcast clouds,0.0,0.0,2020-02-20 22:49:40
350,Palo Alto,37.44,-122.14,71.01,37,1,5.82,US,clear sky,0.0,0.0,2020-02-20 22:49:22
351,Bouloupari,-21.87,166.05,87.8,48,0,3.36,NC,clear sky,0.0,0.0,2020-02-20 22:49:42
352,Manokwari,-0.87,134.08,77.61,75,48,8.41,ID,scattered clouds,0.0,0.0,2020-02-20 22:49:42
353,Pouebo,-20.4,164.57,83.23,64,20,3.53,NC,light rain,0.13,0.0,2020-02-20 22:49:43
354,Henties Bay,-22.12,14.28,66.0,91,69,3.78,NA,broken clouds,0.0,0.0,2020-02-20 22:49:43
355,San Ignacio,17.16,-89.07,91.4,52,40,9.17,BZ,scattered clouds,0.0,0.0,2020-02-20 22:49:44
356,San Juan De Los Morros,9.91,-67.35,72.25,76,91,2.3,VE,overcast clouds,0.0,0.0,2020-02-20 22:49:45
357,Uruzgan,32.83,66.0,30.76,45,67,8.63,AF,broken clouds,0.0,0.0,2020-02-20 22:49:45
358,Inhambane,-23.86,35.38,79.75,73,15,7.92,MZ,few clouds,0.0,0.0,2020-02-20 22:49:45
359,Milos,36.75,24.43,51.8,87,36,14.99,GR,light rain,3.38,0.0,2020-02-20 22:49:47
360,Zhigansk,66.77,123.37,-7.55,95,100,22.28,RU,light snow,0.0,0.25,2020-02-20 22:49:47
361,San Cristobal,7.77,-72.22,86.0,62,40,9.17,VE,scattered clouds,0.88,0.0,2020-02-20 22:49:48
362,Elizabeth City,36.29,-76.25,37.4,93,90,12.75,US,light rain,4.87,0.0,2020-02-20 22:49:48
363,Kiama,-34.68,150.87,72.0,82,90,4.7,AU,overcast clouds,0.38,0.0,2020-02-20 22:47:03
364,Sao Felix Do Xingu,-6.64,-51.99,74.39,95,100,1.79,BR,moderate rain,5.06,0.0,2020-02-20 22:49:49
365,Irbil,36.19,44.01,51.8,93,40,5.61,IQ,scattered clouds,0.0,0.0,2020-02-20 22:46:38
366,Ugoofaaru,5.67,73.0,82.53,72,10,18.41,MV,clear sky,0.0,0.0,2020-02-20 22:49:50
367,Albacete,38.83,-2.0,44.01,81,11,5.82,ES,few clouds,0.0,0.0,2020-02-20 22:49:51
368,Portales,34.19,-103.33,36.0,64,90,9.17,US,overcast clouds,0.0,0.0,2020-02-20 22:49:51
369,Atar,20.52,-13.05,72.75,12,0,10.56,MR,clear sky,0.0,0.0,2020-02-20 22:49:52
370,Manado,1.49,124.85,75.2,94,40,1.12,ID,scattered clouds,0.69,0.0,2020-02-20 22:49:52
371,Baile Herculane,44.88,22.41,29.53,92,83,2.55,RO,broken clouds,0.0,0.0,2020-02-20 22:49:53
372,Olga,43.74,135.29,25.66,63,100,5.97,RU,overcast clouds,0.0,0.0,2020-02-20 22:49:53
373,Boa Vista,2.82,-60.67,89.6,35,81,12.75,BR,broken clouds,0.0,0.0,2020-02-20 22:46:07
374,La Plata,-34.92,-57.95,71.6,40,40,24.16,AR,scattered clouds,0.0,0.0,2020-02-20 22:45:28
375,Vyshkov,52.48,31.69,35.6,92,60,6.71,RU,broken clouds,0.0,0.0,2020-02-20 22:49:55
376,Tammisaari,59.97,23.43,37.99,77,100,8.99,FI,overcast clouds,0.0,0.0,2020-02-20 22:49:55
377,Cockburn Town,21.46,-71.14,80.6,74,40,9.17,TC,scattered clouds,0.0,0.0,2020-02-20 22:49:56
378,Marsh Harbour,26.54,-77.06,75.0,80,0,10.04,BS,clear sky,0.0,0.0,2020-02-20 22:49:56
379,Meulaboh,4.14,96.13,79.81,79,0,11.01,ID,light rain,0.25,0.0,2020-02-20 22:49:57
380,Ust-Barguzin,53.45,108.98,5.05,97,95,2.19,RU,light snow,0.0,0.13,2020-02-20 22:49:57
381,Hauterive,46.09,3.45,51.8,62,40,10.29,FR,scattered clouds,0.0,0.0,2020-02-20 22:49:58
382,Poum,-20.23,164.02,81.01,77,0,15.14,NC,light rain,0.13,0.0,2020-02-20 22:49:58
383,Santa Maria Da Vitoria,-13.39,-44.19,70.68,89,0,2.98,BR,light rain,0.25,0.0,2020-02-20 22:49:59
384,Rocha,-34.48,-54.33,55.85,72,50,6.98,UY,light rain,0.13,0.0,2020-02-20 22:48:26
385,North Ogden,41.31,-111.96,39.99,64,1,5.82,US,clear sky,0.0,0.0,2020-02-20 22:50:00
386,Gaozhou,21.94,110.85,61.05,77,0,4.43,CN,clear sky,0.0,0.0,2020-02-20 22:50:00
387,Wangaratta,-36.37,146.33,66.0,48,50,10.29,AU,scattered clouds,0.0,0.0,2020-02-20 22:50:01
388,Formosa,-26.18,-58.18,82.4,54,0,11.41,AR,clear sky,0.0,0.0,2020-02-20 22:50:01
389,Talaya,61.38,152.75,-20.06,96,43,1.19,RU,scattered clouds,0.0,0.0,2020-02-20 22:50:02
390,Hami,42.8,93.45,20.7,51,5,3.04,CN,clear sky,0.0,0.0,2020-02-20 22:50:02
391,Guerrero Negro,27.98,-114.06,72.34,41,35,9.95,MX,scattered clouds,0.0,0.0,2020-02-20 22:50:03
392,Verkhoyansk,67.54,133.38,-10.07,85,100,3.78,RU,overcast clouds,0.0,0.0,2020-02-20 22:50:04
393,Grindavik,63.84,-22.43,32.0,71,75,14.99,IS,broken clouds,0.0,0.0,2020-02-20 22:50:04
394,Mandali,33.75,45.55,56.23,71,3,2.62,IQ,clear sky,0.0,0.0,2020-02-20 22:50:05
395,Tilichiki,60.47,166.1,-11.6,86,93,6.38,RU,overcast clouds,0.0,0.0,2020-02-20 22:50:05
396,Rawson,-43.3,-65.1,57.47,69,0,23.85,AR,clear sky,0.0,0.0,2020-02-20 22:50:06
397,Orlik,52.52,99.83,-13.77,86,18,3.8,RU,few clouds,0.0,0.0,2020-02-20 22:50:06
398,Revda,56.8,59.93,32.0,95,90,11.18,RU,shower snow,0.0,0.0,2020-02-20 22:50:07
399,Bathsheba,13.22,-59.52,78.8,65,40,19.46,BB,scattered clouds,0.0,0.0,2020-02-20 22:50:07
400,Lewisporte,49.25,-55.05,6.8,50,40,27.51,CA,scattered clouds,0.0,0.0,2020-02-20 22:50:08
401,Novyy Urengoy,66.08,76.63,25.03,96,100,6.98,RU,light snow,0.0,0.5,2020-02-20 22:50:08
402,Butembo,0.15,29.28,65.05,81,37,3.89,CD,scattered clouds,0.0,0.0,2020-02-20 22:50:09
403,Kaduqli,11.02,29.72,73.31,18,55,17.58,SD,broken clouds,0.0,0.0,2020-02-20 22:50:09
404,Erzin,36.96,36.2,59.0,100,75,3.36,TR,broken clouds,1.0,0.0,2020-02-20 22:50:10
405,Buala,-8.14,159.59,86.02,69,96,7.14,SB,overcast clouds,0.0,0.0,2020-02-20 22:50:10
406,Mount Gambier,-37.83,140.77,60.8,77,8,9.17,AU,clear sky,0.0,0.0,2020-02-20 22:50:11
407,Bathurst,-33.42,149.58,64.99,92,87,4.68,AU,overcast clouds,0.0,0.0,2020-02-20 22:49:05
408,Paamiut,61.99,-49.67,15.94,59,100,3.11,GL,overcast clouds,0.0,0.0,2020-02-20 22:50:12
409,Fandriana,-20.23,47.38,60.17,99,100,1.34,MG,moderate rain,7.69,0.0,2020-02-20 22:50:12
410,Torbay,47.67,-52.73,17.01,56,75,35.57,CA,broken clouds,0.0,0.0,2020-02-20 22:50:13
411,Beringovskiy,63.05,179.32,-12.35,84,0,7.61,RU,clear sky,0.0,0.0,2020-02-20 22:50:13
412,Karla,59.37,24.93,36.0,84,90,12.75,EE,overcast clouds,0.0,0.0,2020-02-20 22:50:14
413,Saint-Pierre,-21.34,55.48,77.0,69,20,3.36,RE,few clouds,0.0,0.0,2020-02-20 22:50:14
414,San Pascual,13.8,121.03,73.99,71,33,14.41,PH,scattered clouds,0.0,0.0,2020-02-20 22:50:15
415,Thyboron,56.7,8.21,39.0,93,83,8.99,DK,light rain,0.13,0.0,2020-02-20 22:50:16
416,Sabang,5.89,95.32,82.45,76,3,27.56,ID,light rain,0.63,0.0,2020-02-20 22:50:16
417,Marawi,8.0,124.29,72.0,79,0,5.99,PH,clear sky,0.0,0.0,2020-02-20 22:50:17
418,Kokstad,-30.55,29.42,56.75,95,2,2.19,ZA,clear sky,0.0,0.0,2020-02-20 22:50:18
419,Deputatskiy,69.3,139.9,-4.63,95,100,3.24,RU,overcast clouds,0.0,0.0,2020-02-20 22:50:18
420,Les Cayes,18.2,-73.75,80.98,70,1,13.65,HT,clear sky,0.0,0.0,2020-02-20 22:50:19
421,Karakulino,56.01,53.71,29.44,94,98,6.64,RU,overcast clouds,0.0,0.0,2020-02-20 22:50:19
422,Bandarbeyla,9.49,50.81,76.75,78,54,11.12,SO,broken clouds,0.0,0.0,2020-02-20 22:50:20
423,Yenagoa,4.92,6.26,79.65,84,37,3.51,NG,scattered clouds,0.0,0.0,2020-02-20 22:50:20
424,Domna,51.9,113.16,3.2,84,100,2.24,RU,overcast clouds,0.0,0.0,2020-02-20 22:49:03
425,Hualmay,-11.1,-77.61,73.9,76,100,5.08,PE,overcast clouds,0.0,0.0,2020-02-20 22:50:21
426,Kangaatsiaq,68.31,-53.46,5.41,88,100,6.06,GL,light snow,0.0,0.25,2020-02-20 22:50:22
427,Inongo,-1.95,18.27,77.85,71,79,3.02,CD,broken clouds,0.0,0.0,2020-02-20 22:50:23
428,Sulangan,11.14,123.72,79.38,77,13,16.04,PH,light rain,1.06,0.0,2020-02-20 22:50:23
429,Ucluelet,48.93,-125.55,51.01,65,20,5.82,CA,few clouds,0.0,0.0,2020-02-20 22:50:16
430,Bourail,-21.57,165.48,85.62,52,0,2.75,NC,clear sky,0.0,0.0,2020-02-20 22:50:24
431,Palmas De Monte Alto,-14.27,-43.16,72.75,82,100,2.51,BR,light rain,0.94,0.0,2020-02-20 22:50:25
432,Belem De Sao Francisco,-8.75,-38.97,81.73,62,100,20.04,BR,overcast clouds,0.0,0.0,2020-02-20 22:50:26
433,Gambiran,-6.8,111.5,76.01,90,44,4.41,ID,scattered clouds,0.0,0.0,2020-02-20 22:50:26
434,Magadi,12.97,77.23,62.6,100,20,3.36,IN,mist,0.0,0.0,2020-02-20 22:50:27
435,Zhuhai,22.28,113.57,62.6,88,0,8.05,CN,clear sky,0.0,0.0,2020-02-20 22:50:27
436,Waddan,29.16,16.14,53.15,59,0,7.02,LY,clear sky,0.0,0.0,2020-02-20 22:50:28
437,Takaka,-40.85,172.8,68.0,91,91,10.0,NZ,light rain,0.69,0.0,2020-02-20 22:50:28
438,Kon Tum,14.35,108.0,59.14,84,0,2.17,VN,clear sky,0.0,0.0,2020-02-20 22:50:29
439,Sarh,9.14,18.39,78.8,39,88,4.99,TD,overcast clouds,0.0,0.0,2020-02-20 22:50:30
440,Barranca,-10.75,-77.77,72.95,93,100,10.6,PE,overcast clouds,0.0,0.0,2020-02-20 22:50:30
441,Tafresh,34.69,50.01,31.23,92,1,17.2,IR,clear sky,0.0,0.0,2020-02-20 22:50:31
442,Faya,18.39,42.45,60.8,77,93,9.17,SA,overcast clouds,0.0,0.0,2020-02-20 22:50:31
443,Port-Cartier,50.03,-66.87,-4.0,44,40,9.17,CA,scattered clouds,0.0,0.0,2020-02-20 22:49:32
444,Khandyga,62.67,135.6,-20.79,97,90,2.86,RU,overcast clouds,0.0,0.0,2020-02-20 22:48:36
445,Sept-Iles,50.2,-66.38,-4.0,44,40,9.17,CA,scattered clouds,0.0,0.0,2020-02-20 22:50:32
446,Pobe,6.98,2.66,76.8,91,14,1.01,BJ,few clouds,0.0,0.0,2020-02-20 22:50:33
447,Galveston,29.37,-94.97,51.01,81,90,29.97,US,overcast clouds,0.94,0.0,2020-02-20 22:50:20
448,Atbasar,51.8,68.33,6.96,93,94,4.7,KZ,overcast clouds,0.0,0.0,2020-02-20 22:50:34
449,Gat,31.61,34.76,53.6,81,20,3.36,IL,few clouds,0.0,0.0,2020-02-20 22:50:35
450,Fairbanks,64.84,-147.72,34.0,58,90,6.93,US,overcast clouds,0.0,0.0,2020-02-20 22:48:24
451,Jiaocheng,24.68,116.14,56.07,84,4,1.21,CN,clear sky,0.0,0.0,2020-02-20 22:50:36
452,San Juan,-31.54,-68.54,77.23,21,25,16.13,AR,scattered clouds,0.0,0.0,2020-02-20 22:50:36
453,Port Macquarie,-31.43,152.92,75.99,68,90,4.7,AU,overcast clouds,0.56,0.0,2020-02-20 22:47:04
454,Santana Do Livramento,-30.89,-55.53,62.24,43,0,10.31,BR,clear sky,0.0,0.0,2020-02-20 22:48:14
455,Xuddur,4.12,43.89,73.53,79,90,13.11,SO,overcast clouds,0.0,0.0,2020-02-20 22:50:38
456,Ligayan,4.65,119.47,81.43,77,23,13.96,PH,few clouds,0.0,0.0,2020-02-20 22:50:38
457,Abha,18.22,42.51,60.8,77,68,9.17,SA,broken clouds,0.0,0.0,2020-02-20 22:50:39
458,Labrea,-7.26,-64.8,77.09,95,53,2.98,BR,light rain,2.81,0.0,2020-02-20 22:48:55
459,Pareora,-44.49,171.21,73.99,93,100,3.0,NZ,overcast clouds,0.0,0.0,2020-02-20 22:50:40
460,Umm Kaddadah,13.6,26.69,63.34,23,59,12.57,SD,broken clouds,0.0,0.0,2020-02-20 22:50:40
461,Laguna De Perlas,12.34,-83.67,82.4,74,40,4.7,NI,scattered clouds,0.0,0.0,2020-02-20 22:50:41
462,Parry Sound,45.35,-80.03,14.0,72,2,2.44,CA,clear sky,0.0,0.0,2020-02-20 22:50:41
463,Lagoa,39.05,-27.98,57.29,65,67,11.61,PT,broken clouds,0.0,0.0,2020-02-20 22:50:10
464,Bako,5.78,36.57,70.27,62,48,5.17,ET,scattered clouds,0.0,0.0,2020-02-20 22:50:42
465,Berbera,10.44,45.01,77.09,78,47,4.0,SO,scattered clouds,0.0,0.0,2020-02-20 22:50:43
466,Port Hardy,50.7,-127.42,48.2,57,40,16.11,CA,scattered clouds,0.0,0.0,2020-02-20 22:50:44
467,Verkhnevilyuysk,63.45,120.32,8.01,96,100,4.25,RU,light snow,0.0,0.12,2020-02-20 22:50:44
468,Calan,45.73,22.98,29.19,92,95,2.28,RO,overcast clouds,0.0,0.0,2020-02-20 22:50:45
469,Defiance,41.33,-84.45,27.0,45,1,9.17,US,clear sky,0.0,0.0,2020-02-20 22:50:45
470,Hibbing,47.43,-92.94,21.2,48,1,12.75,US,clear sky,0.0,0.0,2020-02-20 22:50:46
471,Sechura,-5.56,-80.82,74.16,89,18,13.87,PE,few clouds,0.0,0.0,2020-02-20 22:50:46
472,Luderitz,-26.65,15.16,69.8,73,34,18.34,NA,scattered clouds,0.0,0.0,2020-02-20 22:50:47
473,Husavik,66.04,-17.34,32.0,98,90,12.75,IS,light snow,0.0,4.5,2020-02-20 22:50:47
474,Jalu,29.03,21.55,54.39,78,48,10.36,LY,scattered clouds,0.0,0.0,2020-02-20 22:50:48
475,Takoradi,4.88,-1.76,78.62,90,89,3.13,GH,overcast clouds,0.0,0.0,2020-02-20 22:50:48
476,Denpasar,-8.65,115.22,80.6,94,40,8.05,ID,scattered clouds,0.0,0.0,2020-02-20 22:48:16
477,Kutum,14.2,24.67,56.34,32,10,6.08,SD,clear sky,0.0,0.0,2020-02-20 22:50:49
478,Tessalit,20.2,1.01,69.94,13,88,11.5,ML,overcast clouds,0.0,0.0,2020-02-20 22:50:50
479,Turayf,31.67,38.66,44.6,100,0,4.7,SA,clear sky,0.0,0.0,2020-02-20 22:50:50
480,Uglovskoye,51.36,80.19,19.65,87,100,10.65,RU,overcast clouds,0.0,0.0,2020-02-20 22:50:51
481,Sokol,59.46,40.12,31.14,96,99,3.91,RU,overcast clouds,0.0,0.0,2020-02-20 22:50:51
482,Sabha,27.04,14.43,54.45,43,0,11.27,LY,clear sky,0.0,0.0,2020-02-20 22:47:34
483,Honolulu,21.31,-157.86,80.6,69,90,11.41,US,overcast clouds,0.0,0.0,2020-02-20 22:46:32
484,Borovoy,55.43,86.08,24.8,79,100,15.66,RU,snow,0.0,1.94,2020-02-20 22:50:53
485,Freeport,40.66,-73.58,35.6,37,1,16.96,US,clear sky,0.0,0.0,2020-02-20 22:46:17
486,Ambon,-3.7,128.18,78.8,83,40,3.36,ID,scattered clouds,0.13,0.0,2020-02-20 22:50:54
487,Vostok,46.49,135.88,8.58,92,100,3.58,RU,light snow,0.0,0.13,2020-02-20 22:50:54
488,Port Moresby,-9.44,147.18,83.89,74,94,14.2,PG,overcast clouds,0.0,0.0,2020-02-20 22:50:55
489,Palauig,15.44,119.9,73.78,52,1,4.52,PH,clear sky,0.0,0.0,2020-02-20 22:50:56
490,Batemans Bay,-35.72,150.18,66.0,71,100,5.01,AU,light rain,0.25,0.0,2020-02-20 22:50:56
491,Mahibadhoo,3.78,72.97,81.79,78,21,15.9,MV,few clouds,0.0,0.0,2020-02-20 22:50:57
492,Sibu,2.3,111.82,77.0,94,75,4.7,MY,broken clouds,0.0,0.0,2020-02-20 22:50:57
493,Beloeil,45.57,-73.2,10.99,46,1,12.75,CA,clear sky,0.0,0.0,2020-02-20 22:50:42
494,Ventspils,57.39,21.56,39.2,93,75,14.99,LV,broken clouds,0.0,0.0,2020-02-20 22:50:59
495,Port Keats,-14.25,129.55,87.44,65,74,8.41,AU,broken clouds,0.0,0.0,2020-02-20 22:50:59
496,Pizarro,4.95,-77.37,82.08,81,61,6.24,CO,broken clouds,0.0,0.0,2020-02-20 22:51:00
497,Talaja,21.35,72.05,63.86,66,0,9.57,IN,clear sky,0.0,0.0,2020-02-20 22:51:00
498,Camacha,33.08,-16.33,57.2,82,40,6.93,PT,scattered clouds,1.81,0.0,2020-02-20 22:51:01
499,Nunoa,-14.48,-70.64,40.82,94,100,6.98,PE,moderate rain,4.19,0.0,2020-02-20 22:51:01
500,Japura,-0.32,102.35,72.93,97,77,2.13,ID,broken clouds,0.0,0.0,2020-02-20 22:51:02
501,Jumla,29.27,82.18,32.36,54,80,2.84,NP,broken clouds,0.0,0.0,2020-02-20 22:51:02
502,Velasco Ibarra,-1.05,-79.62,75.87,92,100,4.9,EC,light rain,2.19,0.0,2020-02-20 22:51:03
503,Arica,-18.48,-70.3,75.2,69,100,6.93,CL,overcast clouds,0.0,0.0,2020-02-20 22:49:30
504,Yueyang,29.33,113.09,52.66,83,95,6.22,CN,light rain,0.56,0.0,2020-02-20 22:51:04
505,Kampene,-3.6,26.67,69.62,97,100,2.01,CD,overcast clouds,0.0,0.0,2020-02-20 22:51:05
506,Krasnyy Yar,46.53,48.35,30.2,100,90,6.71,RU,mist,0.0,0.0,2020-02-20 22:51:05
507,Sivaki,52.63,126.75,-5.91,92,10,4.85,RU,clear sky,0.0,0.0,2020-02-20 22:51:06
508,Inuvik,68.35,-133.72,3.2,84,90,3.36,CA,light snow,0.0,0.0,2020-02-20 22:51:06
509,Carutapera,-1.2,-46.02,79.34,82,100,5.03,BR,light rain,0.25,0.0,2020-02-20 22:51:07
510,Lasa,46.62,10.7,35.6,78,0,2.24,IT,clear sky,0.0,0.0,2020-02-20 22:51:07
511,Kawalu,-7.38,108.21,72.82,85,84,2.77,ID,broken clouds,0.0,0.0,2020-02-20 22:51:08
512,Shiyan,32.65,110.78,45.64,73,96,3.15,CN,overcast clouds,0.0,0.0,2020-02-20 22:51:08
513,Bull Savanna,17.89,-77.59,70.05,93,68,3.15,JM,light rain,0.75,0.0,2020-02-20 22:51:09
514,Magadan,59.57,150.8,-4.04,72,0,5.01,RU,clear sky,0.0,0.0,2020-02-20 22:51:09
515,Nanakuli,21.39,-158.15,80.6,69,90,11.41,US,overcast clouds,0.0,0.0,2020-02-20 22:51:10
516,Swellendam,-34.02,20.44,59.0,87,9,3.36,ZA,clear sky,0.0,0.0,2020-02-20 22:51:10
517,Warrington,53.39,-2.58,44.01,75,40,17.22,GB,scattered clouds,0.0,0.0,2020-02-20 22:51:11
518,Flinders,-34.58,150.86,72.0,82,90,4.7,AU,overcast clouds,0.38,0.0,2020-02-20 22:51:12
519,Juru,5.31,100.44,78.8,69,20,9.17,MY,few clouds,0.0,0.0,2020-02-20 22:50:03
520,Pangnirtung,66.15,-65.71,-32.8,66,5,3.36,CA,clear sky,0.0,0.0,2020-02-20 22:51:13
521,Vestmannaeyjar,63.44,-20.27,39.2,72,99,20.6,IS,overcast clouds,0.0,0.0,2020-02-20 22:51:14
522,Chateaubelair,13.28,-61.25,78.8,69,40,12.75,VC,scattered clouds,0.0,0.0,2020-02-20 22:51:14
523,Rokytne,51.28,27.21,33.84,87,85,2.84,UA,overcast clouds,0.0,0.0,2020-02-20 22:51:15
524,Manjacaze,-24.71,33.88,74.25,88,10,4.29,MZ,clear sky,0.0,0.0,2020-02-20 22:51:15
525,Vitre,48.12,-1.21,39.2,86,0,4.7,FR,clear sky,0.0,0.0,2020-02-20 22:51:16
526,Olinda,-8.01,-34.86,78.8,88,75,13.87,BR,broken clouds,0.56,0.0,2020-02-20 22:51:16
527,Nargana,9.44,-78.59,79.84,83,87,19.1,PA,light rain,0.38,0.0,2020-02-20 22:51:17
528,Takab,36.4,47.11,32.4,98,100,1.21,IR,light snow,0.0,0.19,2020-02-20 22:51:17
529,Dengzhou,37.81,120.75,42.15,82,100,17.52,CN,overcast clouds,0.0,0.0,2020-02-20 22:51:18
530,Tuy Hoa,13.08,109.3,75.16,78,30,22.66,VN,light rain,0.31,0.0,2020-02-20 22:51:19
531,Chimbote,-9.09,-78.58,75.33,71,94,5.57,PE,overcast clouds,0.0,0.0,2020-02-20 22:51:19
532,Lata,40.16,-8.33,54.0,87,0,3.36,PT,clear sky,0.0,0.0,2020-02-20 22:51:20
533,Wilmington,34.23,-77.94,41.0,93,90,20.8,US,moderate rain,7.56,0.0,2020-02-20 22:47:15
534,Aksu,41.12,80.26,28.85,48,0,3.69,CN,clear sky,0.0,0.0,2020-02-20 22:51:21
535,Kantunilkin,21.09,-87.45,84.2,70,20,10.29,MX,few clouds,0.56,0.0,2020-02-20 22:51:21
536,Tazmalt,36.39,4.4,48.2,87,20,4.7,DZ,few clouds,0.0,0.0,2020-02-20 22:51:22
537,Makat,47.65,53.35,32.31,59,7,8.7,KZ,clear sky,0.0,0.0,2020-02-20 22:51:23
538,Puerto Cabezas,14.04,-83.39,86.0,66,75,11.41,NI,haze,0.0,0.0,2020-02-20 22:51:23
539,Birao,10.28,22.79,72.43,23,51,11.61,CF,broken clouds,0.0,0.0,2020-02-20 22:51:24
540,Sterling,39.01,-77.43,39.2,47,40,4.7,US,scattered clouds,0.0,0.0,2020-02-20 22:51:24
541,Nantucket,41.28,-70.1,32.0,42,40,8.05,US,scattered clouds,0.0,0.0,2020-02-20 22:51:25
542,Omboue,-1.57,9.26,77.31,94,100,2.51,GA,light rain,0.19,0.0,2020-02-20 22:51:25
543,Kautokeino,69.01,23.04,22.69,93,100,27.31,NO,light snow,0.0,0.44,2020-02-20 22:51:26
544,Price,39.6,-110.81,39.99,15,1,1.83,US,clear sky,0.0,0.0,2020-02-20 22:51:27
545,Kasongo,-4.45,26.67,71.1,95,98,2.06,CD,overcast clouds,0.0,0.0,2020-02-20 22:51:27
546,Guangyuan,32.44,105.82,30.0,68,98,4.54,CN,overcast clouds,0.0,0.0,2020-02-20 22:51:28
547,San Miguelito,9.03,-79.5,87.8,62,40,17.22,PA,scattered clouds,0.0,0.0,2020-02-20 22:51:28
548,Aksarka,66.56,67.8,20.75,95,100,12.06,RU,light snow,0.0,0.5,2020-02-20 22:51:29
549,Krasnoselkup,65.7,82.47,19.33,97,96,1.59,RU,light snow,0.0,0.25,2020-02-20 22:51:29
550,Valparaiso,-33.04,-71.63,64.4,87,90,8.05,CL,overcast clouds,0.0,0.0,2020-02-20 22:51:30
551,Opuwo,-18.06,13.84,69.84,34,81,3.31,NA,broken clouds,0.0,0.0,2020-02-20 22:51:30
552,Luau,-10.71,22.22,67.86,93,88,1.25,AO,overcast clouds,0.0,0.0,2020-02-20 22:51:31
553,San Policarpo,12.18,125.51,77.97,83,52,22.84,PH,moderate rain,3.06,0.0,2020-02-20 22:51:31
554,Taggia,43.85,7.85,50.0,76,20,6.93,IT,few clouds,0.0,0.0,2020-02-20 22:51:32
555,Maamba,-17.37,27.15,67.32,88,0,3.83,ZM,clear sky,0.0,0.0,2020-02-20 22:51:32
556,Marrakesh,31.63,-8.01,60.8,63,20,9.17,MA,few clouds,0.0,0.0,2020-02-20 22:51:33
557,Klyuchi,52.27,79.17,15.06,84,100,8.97,RU,overcast clouds,0.0,0.0,2020-02-20 22:51:34
558,Skjervoy,70.03,20.97,32.0,66,100,19.46,NO,overcast clouds,0.0,0.0,2020-02-20 22:49:01
559,Stokmarknes,68.56,14.91,37.4,64,75,16.11,NO,shower rain,0.0,1.63,2020-02-20 22:51:35
560,Chokwe,-24.53,32.98,77.54,77,7,5.57,MZ,clear sky,0.0,0.0,2020-02-20 22:51:35
561,Avera,33.19,-82.53,42.8,100,90,10.29,US,moderate rain,6.44,0.0,2020-02-20 22:51:36
562,Yantal,56.85,105.25,17.8,93,100,8.86,RU,light snow,0.0,0.25,2020-02-20 22:51:36
563,Kondoa,-4.9,35.78,62.73,96,98,3.62,TZ,light rain,0.63,0.0,2020-02-20 22:51:37
564,Bundaberg,-24.85,152.35,89.01,78,75,8.05,AU,broken clouds,0.0,0.0,2020-02-20 22:51:37
565,Tongliao,43.61,122.27,29.82,76,99,8.75,CN,overcast clouds,0.0,0.0,2020-02-20 22:51:38
566,Rio Gallegos,-51.62,-69.22,68.0,56,21,9.17,AR,few clouds,0.0,0.0,2020-02-20 22:51:38
567,Yamada,39.47,141.95,39.02,57,3,1.79,JP,clear sky,0.0,0.0,2020-02-20 22:51:39
568,Saint-Louis,16.33,-15.0,79.07,14,46,12.03,SN,scattered clouds,0.0,0.0,2020-02-20 22:51:39
569,Kirkenaer,60.46,12.06,41.0,86,75,13.87,NO,light rain,4.56,0.0,2020-02-20 22:51:40
570,Gonaives,19.45,-72.68,80.6,69,20,11.41,HT,few clouds,0.0,0.0,2020-02-20 22:51:40
571,Yala,6.33,101.25,72.16,94,13,4.79,TH,light rain,0.25,0.0,2020-02-20 22:51:41
572,Punta Alta,-38.88,-62.07,62.83,59,0,22.88,AR,clear sky,0.0,0.0,2020-02-20 22:51:41
